[
    {
        "code": "1000",
        "city": "Bruxelles",
        "lat": 50.8465573,
        "lon": 4.351697
    },
    {
        "code": "1020",
        "city": "Laeken",
        "lat": 50.883392,
        "lon": 4.3487134
    },
    {
        "code": "1040",
        "city": "Etterbeek",
        "lat": 50.8368511,
        "lon": 4.3895104
    },
    {
        "code": "1070",
        "city": "Anderlecht",
        "lat": 50.8381411,
        "lon": 4.3123401
    },
    {
        "code": "1140",
        "city": "Evere",
        "lat": 50.8704524,
        "lon": 4.4021602
    },
    {
        "code": "1210",
        "city": "Saint-Josse-Ten-Noode",
        "lat": 50.8530739,
        "lon": 4.3723364
    },
    {
        "code": "1315",
        "city": "Piètrebais",
        "lat": 50.7311108,
        "lon": 4.7433685
    },
    {
        "code": "1325",
        "city": "Chaumont-Gistoux",
        "lat": 50.6839808,
        "lon": 4.6974182
    },
    {
        "code": "1342",
        "city": "Limelette",
        "lat": 50.6851551,
        "lon": 4.5549022761211
    },
    {
        "code": "1350",
        "city": "Folx-Les-Caves",
        "lat": 50.6610719,
        "lon": 4.9370984
    },
    {
        "code": "1350",
        "city": "Jandrain-Jandrenouille",
        "lat": 50.6740112,
        "lon": 4.9792652
    },
    {
        "code": "1350",
        "city": "Noduwez",
        "lat": 50.7293197,
        "lon": 4.9640083
    },
    {
        "code": "1357",
        "city": "Linsmeau",
        "lat": 50.7322517,
        "lon": 5.0030144
    },
    {
        "code": "1370",
        "city": "Jodoigne",
        "lat": 50.7218206,
        "lon": 4.8709616
    },
    {
        "code": "1380",
        "city": "Lasne",
        "lat": 50.6860037,
        "lon": 4.4844157
    },
    {
        "code": "1390",
        "city": "Archennes",
        "lat": 50.7516077,
        "lon": 4.6702286
    },
    {
        "code": "1430",
        "city": "Bierghes",
        "lat": 50.69657845,
        "lon": 4.1227257983451
    },
    {
        "code": "1430",
        "city": "Rebecq-Rognon",
        "lat": 50.67355825,
        "lon": 4.1350275503194
    },
    {
        "code": "1440",
        "city": "Wauthier-Braine",
        "lat": 50.68083185,
        "lon": 4.3133036337455
    },
    {
        "code": "1460",
        "city": "Ittre",
        "lat": 50.6463367,
        "lon": 4.2611675641255
    },
    {
        "code": "1470",
        "city": "Genappe",
        "lat": 50.60800575,
        "lon": 4.4479459851741
    },
    {
        "code": "1474",
        "city": "Ways",
        "lat": 50.6269861,
        "lon": 4.4729429472611
    },
    {
        "code": "1495",
        "city": "Marbais",
        "lat": 50.55047955,
        "lon": 4.5380975970878
    },
    {
        "code": "1540",
        "city": "Herne",
        "lat": 50.72329555,
        "lon": 4.0260115663497
    },
    {
        "code": "1570",
        "city": "Galmaarden",
        "lat": 50.7527192,
        "lon": 3.9709983
    },
    {
        "code": "1570",
        "city": "Tollembeek",
        "lat": 50.7430853,
        "lon": 4.004789341376
    },
    {
        "code": "1630",
        "city": "Linkebeek",
        "lat": 50.7716092,
        "lon": 4.3345641
    },
    {
        "code": "1650",
        "city": "Beersel",
        "lat": 50.7684432,
        "lon": 4.3051321494591
    },
    {
        "code": "1670",
        "city": "Bogaarden",
        "lat": 50.7398062,
        "lon": 4.1367803
    },
    {
        "code": "1670",
        "city": "Pepingen",
        "lat": 50.7511702,
        "lon": 4.1785882891377
    },
    {
        "code": "1674",
        "city": "Bellingen",
        "lat": 50.73779765,
        "lon": 4.1601450278998
    },
    {
        "code": "1700",
        "city": "Sint-Ulriks-Kapelle",
        "lat": 50.8800337,
        "lon": 4.2206526
    },
    {
        "code": "1702",
        "city": "Groot-Bijgaarden",
        "lat": 50.8714357,
        "lon": 4.2635668372339
    },
    {
        "code": "1731",
        "city": "Relegem",
        "lat": 50.9019808,
        "lon": 4.2790265927797
    },
    {
        "code": "1740",
        "city": "Ternat",
        "lat": 50.87155835,
        "lon": 4.1834171401216
    },
    {
        "code": "1741",
        "city": "Wambeek",
        "lat": 50.85672975,
        "lon": 4.1646372476962
    },
    {
        "code": "1750",
        "city": "Sint-Kwintens-Lennik",
        "lat": 50.81145495,
        "lon": 4.1456163063499
    },
    {
        "code": "1785",
        "city": "Merchtem",
        "lat": 50.9591981,
        "lon": 4.2327769
    },
    {
        "code": "1790",
        "city": "Affligem",
        "lat": 50.9035063,
        "lon": 4.1174675
    },
    {
        "code": "1831",
        "city": "Diegem",
        "lat": 50.8945555,
        "lon": 4.4365042
    },
    {
        "code": "1840",
        "city": "Londerzeel",
        "lat": 51.0122466,
        "lon": 4.2990729416338
    },
    {
        "code": "1840",
        "city": "Steenhuffel",
        "lat": 50.9944384,
        "lon": 4.2624672
    },
    {
        "code": "1880",
        "city": "Kapelle-Op-Den-Bos",
        "lat": 51.0131904,
        "lon": 4.3599725
    },
    {
        "code": "1910",
        "city": "Berg",
        "lat": 51.1695659,
        "lon": 5.1521172
    },
    {
        "code": "1950",
        "city": "Kraainem",
        "lat": 50.8606105,
        "lon": 4.4691371
    },
    {
        "code": "1970",
        "city": "Wezembeek-Oppem",
        "lat": 50.8440554,
        "lon": 4.4871796
    },
    {
        "code": "1980",
        "city": "Zemst",
        "lat": 50.9865028,
        "lon": 4.44412333945
    },
    {
        "code": "1981",
        "city": "Hofstade",
        "lat": 50.9939033,
        "lon": 4.5042526607237
    },
    {
        "code": "1982",
        "city": "Elewijt",
        "lat": 50.96953845,
        "lon": 4.5075638918541
    },
    {
        "code": "2060",
        "city": "Antwerpen",
        "lat": 51.2211097,
        "lon": 4.3997081
    },
    {
        "code": "2170",
        "city": "Merksem",
        "lat": 51.24994295,
        "lon": 4.4453401635115
    },
    {
        "code": "2200",
        "city": "Herentals",
        "lat": 51.1855514,
        "lon": 4.83464460985
    },
    {
        "code": "2222",
        "city": "Wiekevorst",
        "lat": 51.10609435,
        "lon": 4.7853558986493
    },
    {
        "code": "2235",
        "city": "Westmeerbeek",
        "lat": 51.0603638,
        "lon": 4.8351334
    },
    {
        "code": "2260",
        "city": "Zoerle-Parwijs",
        "lat": 51.0880889,
        "lon": 4.8729402
    },
    {
        "code": "2270",
        "city": "Herenthout",
        "lat": 51.1392427,
        "lon": 4.7543972
    },
    {
        "code": "2290",
        "city": "Vorselaar",
        "lat": 51.2023448,
        "lon": 4.769482
    },
    {
        "code": "2310",
        "city": "Rijkevorsel",
        "lat": 51.3495046,
        "lon": 4.760708
    },
    {
        "code": "2340",
        "city": "Beerse",
        "lat": 51.3134921,
        "lon": 4.837570452313
    },
    {
        "code": "2360",
        "city": "Oud-Turnhout",
        "lat": 51.3178319,
        "lon": 4.9817086
    },
    {
        "code": "2370",
        "city": "Arendonk",
        "lat": 51.3202315,
        "lon": 5.0864557
    },
    {
        "code": "2390",
        "city": "Oostmalle",
        "lat": 51.3019209,
        "lon": 4.7331618
    },
    {
        "code": "2460",
        "city": "Lichtaart",
        "lat": 51.2309182,
        "lon": 4.9037390737022
    },
    {
        "code": "2490",
        "city": "Balen",
        "lat": 51.171804,
        "lon": 5.1937730761009
    },
    {
        "code": "2520",
        "city": "Broechem",
        "lat": 51.1813951,
        "lon": 4.5967162
    },
    {
        "code": "2520",
        "city": "Oelegem",
        "lat": 51.2110687,
        "lon": 4.5972162
    },
    {
        "code": "2560",
        "city": "Bevel",
        "lat": 51.1364316,
        "lon": 4.6922875770195
    },
    {
        "code": "2580",
        "city": "Putte",
        "lat": 51.0570823,
        "lon": 4.6310473
    },
    {
        "code": "2590",
        "city": "Berlaar",
        "lat": 51.10303735,
        "lon": 4.6640387634597
    },
    {
        "code": "2600",
        "city": "Berchem",
        "lat": 51.1918493,
        "lon": 4.4317026387884
    },
    {
        "code": "2620",
        "city": "Hemiksem",
        "lat": 51.1442105,
        "lon": 4.3420555
    },
    {
        "code": "2650",
        "city": "Edegem",
        "lat": 51.1574786,
        "lon": 4.4384284
    },
    {
        "code": "2800",
        "city": "Mechelen",
        "lat": 51.02803335,
        "lon": 4.471321199996
    },
    {
        "code": "2820",
        "city": "Rijmenam",
        "lat": 51.0010818,
        "lon": 4.5842221
    },
    {
        "code": "2830",
        "city": "Tisselt",
        "lat": 51.033992,
        "lon": 4.3598407
    },
    {
        "code": "2840",
        "city": "Reet",
        "lat": 51.1044854,
        "lon": 4.4058899586301
    },
    {
        "code": "2840",
        "city": "Rumst",
        "lat": 51.0792853,
        "lon": 4.4240472
    },
    {
        "code": "2870",
        "city": "Breendonk",
        "lat": 51.0452687,
        "lon": 4.3136108625549
    },
    {
        "code": "2870",
        "city": "Puurs",
        "lat": 51.07199845,
        "lon": 4.2861928678797
    },
    {
        "code": "2880",
        "city": "Bornem",
        "lat": 51.0924649,
        "lon": 4.2423260051519
    },
    {
        "code": "2910",
        "city": "Essen",
        "lat": 51.4677957,
        "lon": 4.4701309
    },
    {
        "code": "2930",
        "city": "Brasschaat",
        "lat": 51.2930933,
        "lon": 4.489307
    },
    {
        "code": "2940",
        "city": "Stabroek",
        "lat": 51.33518735,
        "lon": 4.370312016044
    },
    {
        "code": "2950",
        "city": "Kapellen",
        "lat": 51.332759,
        "lon": 4.4312318305558
    },
    {
        "code": "2970",
        "city": "'s Gravenwezel",
        "lat": 51.2624856,
        "lon": 4.5556038
    },
    {
        "code": "3050",
        "city": "Oud-Heverlee",
        "lat": 50.8217682,
        "lon": 4.6678971
    },
    {
        "code": "3051",
        "city": "Sint-Joris-Weert",
        "lat": 50.8051035,
        "lon": 4.6458289787229
    },
    {
        "code": "3054",
        "city": "Vaalbeek",
        "lat": 50.82408165,
        "lon": 4.6852713590102
    },
    {
        "code": "3061",
        "city": "Leefdaal",
        "lat": 50.8419887,
        "lon": 4.5905043649411
    },
    {
        "code": "3078",
        "city": "Meerbeek",
        "lat": 50.8782935,
        "lon": 4.5972692536847
    },
    {
        "code": "3080",
        "city": "Tervuren",
        "lat": 50.8227718,
        "lon": 4.5144027
    },
    {
        "code": "3110",
        "city": "Rotselaar",
        "lat": 50.9543637,
        "lon": 4.7143205960258
    },
    {
        "code": "3111",
        "city": "Wezemaal",
        "lat": 50.9482552,
        "lon": 4.7683306885409
    },
    {
        "code": "3130",
        "city": "Betekom",
        "lat": 50.99602795,
        "lon": 4.7908301771478
    },
    {
        "code": "3140",
        "city": "Keerbergen",
        "lat": 51.0049242,
        "lon": 4.6265551
    },
    {
        "code": "3150",
        "city": "Haacht",
        "lat": 50.9769286,
        "lon": 4.6386824
    },
    {
        "code": "3150",
        "city": "Tildonk",
        "lat": 50.94081955,
        "lon": 4.6595165776069
    },
    {
        "code": "3150",
        "city": "Wespelaar",
        "lat": 50.95645295,
        "lon": 4.6325890563885
    },
    {
        "code": "3200",
        "city": "Gelrode",
        "lat": 50.9670761,
        "lon": 4.8042730440984
    },
    {
        "code": "3290",
        "city": "Diest",
        "lat": 50.98456645,
        "lon": 5.052873496255
    },
    {
        "code": "3290",
        "city": "Schaffen",
        "lat": 51.0130411,
        "lon": 5.086792549946
    },
    {
        "code": "3294",
        "city": "Molenstede",
        "lat": 51.0071839,
        "lon": 5.0247465287649
    },
    {
        "code": "3300",
        "city": "Goetsenhoven",
        "lat": 50.77139835,
        "lon": 4.9603301209235
    },
    {
        "code": "3300",
        "city": "Oorbeek",
        "lat": 50.79215565,
        "lon": 4.9137602382894
    },
    {
        "code": "3300",
        "city": "Oplinter",
        "lat": 50.8284931,
        "lon": 4.9950692073381
    },
    {
        "code": "3300",
        "city": "Sint-Margriete-Houtem",
        "lat": 50.83464645,
        "lon": 4.9623805201831
    },
    {
        "code": "3350",
        "city": "Neerhespen",
        "lat": 50.78801405,
        "lon": 5.0579336298623
    },
    {
        "code": "3350",
        "city": "Wommersom",
        "lat": 50.812361,
        "lon": 5.0183106289924
    },
    {
        "code": "3400",
        "city": "Eliksem",
        "lat": 50.78710135,
        "lon": 5.0074922319452
    },
    {
        "code": "3400",
        "city": "Overwinden",
        "lat": 50.75242545,
        "lon": 5.0448025257015
    },
    {
        "code": "3400",
        "city": "Rumsdorp",
        "lat": 50.76917005,
        "lon": 5.0695564232804
    },
    {
        "code": "3473",
        "city": "Waanrode",
        "lat": 50.9129375,
        "lon": 5.0037716328589
    },
    {
        "code": "3510",
        "city": "Spalbeek",
        "lat": 50.9490449,
        "lon": 5.2277944313068
    },
    {
        "code": "3540",
        "city": "Herk-De-Stad",
        "lat": 50.9222911,
        "lon": 5.1884301868953
    },
    {
        "code": "3581",
        "city": "Beverlo",
        "lat": 51.08973005,
        "lon": 5.2443565507181
    },
    {
        "code": "3620",
        "city": "Neerharen",
        "lat": 50.907778,
        "lon": 5.680982
    },
    {
        "code": "3631",
        "city": "Boorsem",
        "lat": 50.9408858,
        "lon": 5.7147232
    },
    {
        "code": "3631",
        "city": "Uikhoven",
        "lat": 50.9264738,
        "lon": 5.7199198507341
    },
    {
        "code": "3640",
        "city": "Ophoven",
        "lat": 51.13225635,
        "lon": 5.7881529659009
    },
    {
        "code": "3670",
        "city": "Ellikom",
        "lat": 51.1303479,
        "lon": 5.5289463613944
    },
    {
        "code": "3670",
        "city": "Gruitrode",
        "lat": 51.08477665,
        "lon": 5.5813814347439
    },
    {
        "code": "3680",
        "city": "Maaseik",
        "lat": 51.0947181,
        "lon": 5.791733
    },
    {
        "code": "3700",
        "city": "Berg",
        "lat": 51.1695659,
        "lon": 5.1521172
    },
    {
        "code": "3700",
        "city": "Mal",
        "lat": 50.7689604,
        "lon": 5.5223906
    },
    {
        "code": "3700",
        "city": "Neerrepen",
        "lat": 50.8121319,
        "lon": 5.4449386
    },
    {
        "code": "3700",
        "city": "Piringen",
        "lat": 50.7873928,
        "lon": 5.4198462
    },
    {
        "code": "3700",
        "city": "Sluizen",
        "lat": 51.133268,
        "lon": 2.7568247
    },
    {
        "code": "3724",
        "city": "Vliermaal",
        "lat": 50.8326029,
        "lon": 5.4259091735787
    },
    {
        "code": "3740",
        "city": "Beverst",
        "lat": 50.8921566,
        "lon": 5.4734935
    },
    {
        "code": "3740",
        "city": "Rijkhoven",
        "lat": 50.8342984,
        "lon": 5.5163495
    },
    {
        "code": "3770",
        "city": "Herderen",
        "lat": 50.8071071,
        "lon": 5.5744881
    },
    {
        "code": "3770",
        "city": "Vlijtingen",
        "lat": 50.8329146,
        "lon": 5.5895873
    },
    {
        "code": "3792",
        "city": "Fouron-Saint-Pierre",
        "lat": 50.72830265,
        "lon": 5.8242427123549
    },
    {
        "code": "3800",
        "city": "Engelmanshoven",
        "lat": 50.77280875,
        "lon": 5.2518063089799
    },
    {
        "code": "3800",
        "city": "Sint-Truiden",
        "lat": 50.82694775,
        "lon": 5.2034249116034
    },
    {
        "code": "3803",
        "city": "Runkelen",
        "lat": 50.8477735,
        "lon": 5.1519921
    },
    {
        "code": "3840",
        "city": "Hendrieken",
        "lat": 50.797246,
        "lon": 5.3287966873717
    },
    {
        "code": "3840",
        "city": "Rijkel",
        "lat": 50.80429285,
        "lon": 5.2612885523105
    },
    {
        "code": "3870",
        "city": "Heks",
        "lat": 50.7687571,
        "lon": 5.3567635
    },
    {
        "code": "3870",
        "city": "Horpmaal",
        "lat": 50.7582823,
        "lon": 5.3328245
    },
    {
        "code": "3870",
        "city": "Rukkelingen-Loon",
        "lat": 50.7278444,
        "lon": 5.2539162
    },
    {
        "code": "3890",
        "city": "Kortijs",
        "lat": 50.7052793,
        "lon": 5.1485502564418
    },
    {
        "code": "3891",
        "city": "Borlo",
        "lat": 50.7345174,
        "lon": 5.1743785728014
    },
    {
        "code": "3891",
        "city": "Muizen",
        "lat": 50.7614659,
        "lon": 5.1781361499823
    },
    {
        "code": "3910",
        "city": "Sint-Huibrechts-Lille",
        "lat": 51.2253075,
        "lon": 5.4937001151083
    },
    {
        "code": "3930",
        "city": "Achel",
        "lat": 51.2684314,
        "lon": 5.4792895720018
    },
    {
        "code": "3930",
        "city": "Hamont",
        "lat": 51.25458535,
        "lon": 5.5312873136301
    },
    {
        "code": "3950",
        "city": "Kaulille",
        "lat": 51.19391715,
        "lon": 5.5172805548337
    },
    {
        "code": "3950",
        "city": "Reppel",
        "lat": 51.1470494,
        "lon": 5.5522997799873
    },
    {
        "code": "3960",
        "city": "Bree",
        "lat": 51.1386239,
        "lon": 5.6229805058514
    },
    {
        "code": "3990",
        "city": "Peer",
        "lat": 51.10874,
        "lon": 5.4491572190061
    },
    {
        "code": "4000",
        "city": "Rocourt",
        "lat": 50.678042,
        "lon": 5.547616
    },
    {
        "code": "4050",
        "city": "Chaudfontaine",
        "lat": 50.5847922,
        "lon": 5.6469688
    },
    {
        "code": "4100",
        "city": "Seraing",
        "lat": 50.5966392,
        "lon": 5.5083375
    },
    {
        "code": "4101",
        "city": "Jemeppe-Sur-Meuse",
        "lat": 50.6168289,
        "lon": 5.5049541
    },
    {
        "code": "4121",
        "city": "Neuville-En-Condroz",
        "lat": 50.5520337,
        "lon": 5.4514318
    },
    {
        "code": "4140",
        "city": "Dolembreux",
        "lat": 50.53758625,
        "lon": 5.628000939321
    },
    {
        "code": "4160",
        "city": "Anthisnes",
        "lat": 50.481662,
        "lon": 5.5225261
    },
    {
        "code": "4163",
        "city": "Tavier",
        "lat": 50.4960227,
        "lon": 5.4707571
    },
    {
        "code": "4190",
        "city": "Ferrières",
        "lat": 50.3999541,
        "lon": 5.605138
    },
    {
        "code": "4217",
        "city": "Waret-L'evêque",
        "lat": 50.5557893,
        "lon": 5.0671316
    },
    {
        "code": "4219",
        "city": "Ambresin",
        "lat": 50.6266779,
        "lon": 5.0305133
    },
    {
        "code": "4252",
        "city": "Omal",
        "lat": 50.6554534,
        "lon": 5.1969427
    },
    {
        "code": "4254",
        "city": "Ligney",
        "lat": 50.66174,
        "lon": 5.182381
    },
    {
        "code": "4260",
        "city": "Ville-En-Hesbaye",
        "lat": 50.6182889,
        "lon": 5.1157512
    },
    {
        "code": "4263",
        "city": "Tourinne",
        "lat": 50.639549,
        "lon": 5.1765528
    },
    {
        "code": "4280",
        "city": "Avin",
        "lat": 50.620859,
        "lon": 5.067671
    },
    {
        "code": "4280",
        "city": "Cras-Avernas",
        "lat": 50.6978983,
        "lon": 5.122837
    },
    {
        "code": "4280",
        "city": "Hannut",
        "lat": 50.6724649,
        "lon": 5.0779916
    },
    {
        "code": "4287",
        "city": "Pellaines",
        "lat": 50.7228078,
        "lon": 5.0055524
    },
    {
        "code": "4300",
        "city": "Waremme",
        "lat": 50.6976875,
        "lon": 5.2546191
    },
    {
        "code": "4317",
        "city": "Aineffe",
        "lat": 50.6229561,
        "lon": 5.256235
    },
    {
        "code": "4317",
        "city": "Borlez",
        "lat": 50.632984,
        "lon": 5.245072
    },
    {
        "code": "4347",
        "city": "Voroux-Goreux",
        "lat": 50.6547034,
        "lon": 5.4271453
    },
    {
        "code": "4350",
        "city": "Lamine",
        "lat": 50.689076,
        "lon": 5.333978
    },
    {
        "code": "4357",
        "city": "Limont",
        "lat": 50.6600262,
        "lon": 5.3107335
    },
    {
        "code": "4360",
        "city": "Oreye",
        "lat": 50.7291681,
        "lon": 5.3530675
    },
    {
        "code": "4360",
        "city": "Otrange",
        "lat": 50.7370788,
        "lon": 5.384458
    },
    {
        "code": "4367",
        "city": "Crisnée",
        "lat": 50.715885,
        "lon": 5.397318
    },
    {
        "code": "4367",
        "city": "Odeur",
        "lat": 50.707654,
        "lon": 5.4158293
    },
    {
        "code": "4400",
        "city": "Flémalle-Haute",
        "lat": 50.6018434,
        "lon": 5.4474684
    },
    {
        "code": "4400",
        "city": "Ivoz-Ramet",
        "lat": 50.5822766,
        "lon": 5.4523491
    },
    {
        "code": "4420",
        "city": "Tilleur",
        "lat": 50.620651,
        "lon": 5.5307061
    },
    {
        "code": "4430",
        "city": "Ans",
        "lat": 50.6624326,
        "lon": 5.5190612
    },
    {
        "code": "4452",
        "city": "Wihogne",
        "lat": 50.7277451,
        "lon": 5.5064112
    },
    {
        "code": "4460",
        "city": "Velroux",
        "lat": 50.6436521,
        "lon": 5.4254194
    },
    {
        "code": "4480",
        "city": "Clermont-Sous-Huy",
        "lat": 50.569046,
        "lon": 5.3922
    },
    {
        "code": "4480",
        "city": "Engis",
        "lat": 50.582433,
        "lon": 5.4043113
    },
    {
        "code": "4500",
        "city": "Ben-Ahin",
        "lat": 50.5033196,
        "lon": 5.1773498
    },
    {
        "code": "4500",
        "city": "Huy",
        "lat": 50.5215385,
        "lon": 5.2357453
    },
    {
        "code": "4540",
        "city": "Flône",
        "lat": 50.5582387,
        "lon": 5.3354736
    },
    {
        "code": "4540",
        "city": "Jehay",
        "lat": 50.575487,
        "lon": 5.3202782
    },
    {
        "code": "4550",
        "city": "Villers-Le-Temple",
        "lat": 50.5081151,
        "lon": 5.3708571
    },
    {
        "code": "4570",
        "city": "Vyle-Et-Tharoul",
        "lat": 50.4462845,
        "lon": 5.2683004
    },
    {
        "code": "4577",
        "city": "Modave",
        "lat": 50.4416137,
        "lon": 5.3017936
    },
    {
        "code": "4600",
        "city": "Richelle",
        "lat": 50.7171434,
        "lon": 5.695354
    },
    {
        "code": "4606",
        "city": "Saint-André",
        "lat": 50.6953487,
        "lon": 5.7536486
    },
    {
        "code": "4607",
        "city": "Mortroux",
        "lat": 50.7132408,
        "lon": 5.7513854
    },
    {
        "code": "4610",
        "city": "Beyne-Heusay",
        "lat": 50.6220566,
        "lon": 5.6534141
    },
    {
        "code": "4624",
        "city": "Romsée",
        "lat": 50.6068155,
        "lon": 5.6655488
    },
    {
        "code": "4650",
        "city": "Chaineux",
        "lat": 50.6319367,
        "lon": 5.8342711
    },
    {
        "code": "4653",
        "city": "Bolland",
        "lat": 50.6614055,
        "lon": 5.7594413
    },
    {
        "code": "4670",
        "city": "Trembleur",
        "lat": 50.6953295,
        "lon": 5.7268086
    },
    {
        "code": "4684",
        "city": "Haccourt",
        "lat": 50.7339784,
        "lon": 5.6667674
    },
    {
        "code": "4690",
        "city": "Eben-Emael",
        "lat": 50.7994409,
        "lon": 5.6702417
    },
    {
        "code": "4701",
        "city": "Kettenis",
        "lat": 50.6461317,
        "lon": 6.0458005
    },
    {
        "code": "4710",
        "city": "Lontzen",
        "lat": 50.6804233,
        "lon": 6.0073447
    },
    {
        "code": "4750",
        "city": "Elsenborn",
        "lat": 50.4573116,
        "lon": 6.2213827
    },
    {
        "code": "4782",
        "city": "Schoenberg",
        "lat": 50.2888095,
        "lon": 6.2642498
    },
    {
        "code": "4783",
        "city": "Lommersweiler",
        "lat": 50.2389236,
        "lon": 6.1651484
    },
    {
        "code": "4800",
        "city": "Ensival",
        "lat": 50.582172,
        "lon": 5.843182
    },
    {
        "code": "4800",
        "city": "Lambermont",
        "lat": 49.7051899,
        "lon": 5.191001
    },
    {
        "code": "4800",
        "city": "Polleur",
        "lat": 50.542907,
        "lon": 5.873929354985
    },
    {
        "code": "4840",
        "city": "Welkenraedt",
        "lat": 50.6627086,
        "lon": 5.9723396
    },
    {
        "code": "4860",
        "city": "Wegnez",
        "lat": 50.5789617,
        "lon": 5.8175559
    },
    {
        "code": "4880",
        "city": "Aubel",
        "lat": 50.7041498,
        "lon": 5.8585553
    },
    {
        "code": "4900",
        "city": "Spa",
        "lat": 50.4920838,
        "lon": 5.8626233
    },
    {
        "code": "4910",
        "city": "Polleur",
        "lat": 50.542907,
        "lon": 5.873929354985
    },
    {
        "code": "4920",
        "city": "Aywaille",
        "lat": 50.4734827,
        "lon": 5.6742167
    },
    {
        "code": "4950",
        "city": "Faymonville",
        "lat": 50.4054037,
        "lon": 6.1407071
    },
    {
        "code": "4950",
        "city": "Robertville",
        "lat": 50.4550294,
        "lon": 6.1224661
    },
    {
        "code": "4950",
        "city": "Sourbrodt",
        "lat": 50.4772534,
        "lon": 6.1143694
    },
    {
        "code": "4960",
        "city": "Malmedy",
        "lat": 50.4239904,
        "lon": 6.0266001
    },
    {
        "code": "4970",
        "city": "Francorchamps",
        "lat": 50.4531568,
        "lon": 5.952833
    },
    {
        "code": "4980",
        "city": "Fosse",
        "lat": 50.3388474,
        "lon": 5.8378154
    },
    {
        "code": "4987",
        "city": "La Gleize",
        "lat": 50.4128545,
        "lon": 5.8459307
    },
    {
        "code": "5020",
        "city": "Champion",
        "lat": 50.49862565,
        "lon": 4.9035112119756
    },
    {
        "code": "5024",
        "city": "Marche-Les-Dames",
        "lat": 50.4864453,
        "lon": 4.9615056
    },
    {
        "code": "5030",
        "city": "Ernage",
        "lat": 50.5941971,
        "lon": 4.6739886
    },
    {
        "code": "5030",
        "city": "Sauvenière",
        "lat": 50.5810646,
        "lon": 4.7248074
    },
    {
        "code": "5031",
        "city": "Grand-Leez",
        "lat": 50.57820735,
        "lon": 4.7609593378472
    },
    {
        "code": "5070",
        "city": "Vitrival",
        "lat": 50.3941596,
        "lon": 4.6558828
    },
    {
        "code": "5080",
        "city": "Emines",
        "lat": 50.5157255,
        "lon": 4.8279560785714
    },
    {
        "code": "5081",
        "city": "Meux",
        "lat": 50.552563,
        "lon": 4.7986774536609
    },
    {
        "code": "5100",
        "city": "Jambes",
        "lat": 50.458883332027,
        "lon": 4.8785294244785
    },
    {
        "code": "5100",
        "city": "Naninne",
        "lat": 50.4146082,
        "lon": 4.9316703499006
    },
    {
        "code": "5140",
        "city": "Ligny",
        "lat": 50.5126287,
        "lon": 4.5757572
    },
    {
        "code": "5300",
        "city": "Andenne",
        "lat": 50.4900943,
        "lon": 5.1043923
    },
    {
        "code": "5300",
        "city": "Coutisse",
        "lat": 50.4636595,
        "lon": 5.1169603
    },
    {
        "code": "5310",
        "city": "Aische-En-Refail",
        "lat": 50.5988682,
        "lon": 4.8359955
    },
    {
        "code": "5310",
        "city": "Branchon",
        "lat": 50.629691,
        "lon": 4.971969
    },
    {
        "code": "5310",
        "city": "Waret-La-Chaussée",
        "lat": 50.5417091,
        "lon": 4.9217571
    },
    {
        "code": "5330",
        "city": "Assesse",
        "lat": 50.3704203,
        "lon": 5.0233625
    },
    {
        "code": "5330",
        "city": "Maillen",
        "lat": 50.3775518,
        "lon": 4.9699385
    },
    {
        "code": "5340",
        "city": "Haltinne",
        "lat": 50.4508568,
        "lon": 5.0744138
    },
    {
        "code": "5362",
        "city": "Achet",
        "lat": 50.3334777,
        "lon": 5.1751963
    },
    {
        "code": "5363",
        "city": "Emptinne",
        "lat": 50.3253905,
        "lon": 5.1212547
    },
    {
        "code": "5364",
        "city": "Schaltin",
        "lat": 50.3579006,
        "lon": 5.1237159
    },
    {
        "code": "5370",
        "city": "Barvaux-Condroz",
        "lat": 50.3291239,
        "lon": 5.2607234
    },
    {
        "code": "5370",
        "city": "Havelange",
        "lat": 50.3870946,
        "lon": 5.23958
    },
    {
        "code": "5377",
        "city": "Baillonville",
        "lat": 50.288759,
        "lon": 5.338213
    },
    {
        "code": "5377",
        "city": "Waillet",
        "lat": 50.260584,
        "lon": 5.304196
    },
    {
        "code": "5380",
        "city": "Cortil-Wodon",
        "lat": 50.567323,
        "lon": 4.958369
    },
    {
        "code": "5500",
        "city": "Bouvignes-Sur-Meuse",
        "lat": 50.2725677,
        "lon": 4.8984129
    },
    {
        "code": "5500",
        "city": "Dinant",
        "lat": 50.2608166,
        "lon": 4.91242
    },
    {
        "code": "5500",
        "city": "Falmignoul",
        "lat": 50.2037856,
        "lon": 4.8924373
    },
    {
        "code": "5520",
        "city": "Anthée",
        "lat": 50.2395304,
        "lon": 4.7604034
    },
    {
        "code": "5520",
        "city": "Onhaye",
        "lat": 50.2435657,
        "lon": 4.840864
    },
    {
        "code": "5522",
        "city": "Falaen",
        "lat": 50.2782156,
        "lon": 4.793357
    },
    {
        "code": "5523",
        "city": "Sommière",
        "lat": 50.274944,
        "lon": 4.8454743
    },
    {
        "code": "5523",
        "city": "Weillen",
        "lat": 50.2596445,
        "lon": 4.8245344
    },
    {
        "code": "5530",
        "city": "Evrehailles",
        "lat": 50.3202787,
        "lon": 4.9125689
    },
    {
        "code": "5537",
        "city": "Sosoye",
        "lat": 50.2955787,
        "lon": 4.7815722
    },
    {
        "code": "5540",
        "city": "Hastière",
        "lat": 50.1973562,
        "lon": 4.8225541872005
    },
    {
        "code": "5540",
        "city": "Hastière-Lavaux",
        "lat": 50.216541,
        "lon": 4.8242423
    },
    {
        "code": "5555",
        "city": "Cornimont",
        "lat": 49.8626123,
        "lon": 4.9979774
    },
    {
        "code": "5555",
        "city": "Graide",
        "lat": 49.9514336,
        "lon": 5.0674675
    },
    {
        "code": "5555",
        "city": "Gros-Fays",
        "lat": 49.869524,
        "lon": 4.9830915
    },
    {
        "code": "5560",
        "city": "Ciergnon",
        "lat": 50.1666464,
        "lon": 5.0899109
    },
    {
        "code": "5560",
        "city": "Mesnil-Eglise",
        "lat": 50.1635695,
        "lon": 4.9616357
    },
    {
        "code": "5562",
        "city": "Custinne",
        "lat": 50.2117661,
        "lon": 5.0484175
    },
    {
        "code": "5563",
        "city": "Hour",
        "lat": 50.1613066,
        "lon": 5.0372408
    },
    {
        "code": "5564",
        "city": "Wanlin",
        "lat": 50.1593381,
        "lon": 5.061512
    },
    {
        "code": "5570",
        "city": "Baronville",
        "lat": 50.1262206,
        "lon": 4.9468551
    },
    {
        "code": "5570",
        "city": "Honnay",
        "lat": 50.0666286,
        "lon": 5.0123245
    },
    {
        "code": "5575",
        "city": "Houdremont",
        "lat": 49.942041,
        "lon": 4.9445943
    },
    {
        "code": "5575",
        "city": "Louette-Saint-Denis",
        "lat": 49.9589147,
        "lon": 4.9572488
    },
    {
        "code": "5575",
        "city": "Sart-Custinne",
        "lat": 50.0014538,
        "lon": 4.9175574
    },
    {
        "code": "5575",
        "city": "Willerzie",
        "lat": 49.9874142,
        "lon": 4.8475671
    },
    {
        "code": "5580",
        "city": "Mont-Gauthier",
        "lat": 50.2092771,
        "lon": 5.120824
    },
    {
        "code": "5590",
        "city": "Chevetogne",
        "lat": 50.223801,
        "lon": 5.1188335
    },
    {
        "code": "5590",
        "city": "Ciney",
        "lat": 50.2949558,
        "lon": 5.0974251
    },
    {
        "code": "5600",
        "city": "Franchimont",
        "lat": 50.1900466,
        "lon": 4.6393972
    },
    {
        "code": "5600",
        "city": "Roly",
        "lat": 50.1356527,
        "lon": 4.5381501
    },
    {
        "code": "5600",
        "city": "Villers-Le-Gambon",
        "lat": 50.1904615,
        "lon": 4.6084845
    },
    {
        "code": "5620",
        "city": "Flavion",
        "lat": 50.2496186,
        "lon": 4.7134091
    },
    {
        "code": "5620",
        "city": "Hemptinne-Lez-Florennes",
        "lat": 50.2282738,
        "lon": 4.5631279
    },
    {
        "code": "5621",
        "city": "Hanzinelle",
        "lat": 50.2949873,
        "lon": 4.5607099
    },
    {
        "code": "5630",
        "city": "Cerfontaine",
        "lat": 50.1687764,
        "lon": 4.4125932
    },
    {
        "code": "5651",
        "city": "Berzée",
        "lat": 50.2892396,
        "lon": 4.4012206
    },
    {
        "code": "5651",
        "city": "Tarcienne",
        "lat": 50.3119341,
        "lon": 4.4983015
    },
    {
        "code": "5660",
        "city": "Dailly",
        "lat": 50.0577541,
        "lon": 4.4360525
    },
    {
        "code": "5660",
        "city": "Mariembourg",
        "lat": 50.0941307,
        "lon": 4.5233186
    },
    {
        "code": "5680",
        "city": "Gimnée",
        "lat": 50.1315986,
        "lon": 4.7141334
    },
    {
        "code": "6000",
        "city": "Charleroi",
        "lat": 50.41571025,
        "lon": 4.4491649999234
    },
    {
        "code": "6010",
        "city": "Couillet",
        "lat": 50.391219,
        "lon": 4.468631
    },
    {
        "code": "6030",
        "city": "Marchienne-Au-Pont",
        "lat": 50.4067102,
        "lon": 4.3960065
    },
    {
        "code": "6031",
        "city": "Monceau-Sur-Sambre",
        "lat": 50.4170168,
        "lon": 4.382402
    },
    {
        "code": "6061",
        "city": "Montignies-Sur-Sambre",
        "lat": 50.4109216,
        "lon": 4.4729234863084
    },
    {
        "code": "6120",
        "city": "Marbaix",
        "lat": 50.3268072,
        "lon": 4.3713936
    },
    {
        "code": "6141",
        "city": "Forchies-La-Marche",
        "lat": 50.4383794,
        "lon": 4.3198191
    },
    {
        "code": "6182",
        "city": "Souvret",
        "lat": 50.450999,
        "lon": 4.350827
    },
    {
        "code": "6200",
        "city": "Bouffioulx",
        "lat": 50.390213,
        "lon": 4.5151961
    },
    {
        "code": "6200",
        "city": "Châtelet",
        "lat": 50.4046075,
        "lon": 4.5243511
    },
    {
        "code": "6223",
        "city": "Wagnelée",
        "lat": 50.52262195,
        "lon": 4.5273110200086
    },
    {
        "code": "6230",
        "city": "Viesville",
        "lat": 50.4906258,
        "lon": 4.4030299776693
    },
    {
        "code": "6280",
        "city": "Acoz",
        "lat": 50.3588065,
        "lon": 4.5323568
    },
    {
        "code": "6280",
        "city": "Joncret",
        "lat": 50.3528064,
        "lon": 4.5125952
    },
    {
        "code": "6440",
        "city": "Froidchapelle",
        "lat": 50.1511597,
        "lon": 4.3269129
    },
    {
        "code": "6441",
        "city": "Erpion",
        "lat": 50.2118893,
        "lon": 4.3512321
    },
    {
        "code": "6463",
        "city": "Lompret",
        "lat": 50.0642146,
        "lon": 4.3790041
    },
    {
        "code": "6470",
        "city": "Rance",
        "lat": 50.1430111,
        "lon": 4.2731851
    },
    {
        "code": "6500",
        "city": "Leval-Chaudeville",
        "lat": 50.2349363,
        "lon": 4.2289677
    },
    {
        "code": "6500",
        "city": "Thirimont",
        "lat": 50.2608137,
        "lon": 4.2364418
    },
    {
        "code": "6540",
        "city": "Lobbes",
        "lat": 50.3460194,
        "lon": 4.2654874
    },
    {
        "code": "6540",
        "city": "Mont-Sainte-Geneviève",
        "lat": 50.3766211,
        "lon": 4.2377392
    },
    {
        "code": "6542",
        "city": "Sars-La-Buissière",
        "lat": 50.3352549,
        "lon": 4.209803
    },
    {
        "code": "6590",
        "city": "Momignies",
        "lat": 50.0286317,
        "lon": 4.1649981
    },
    {
        "code": "6592",
        "city": "Monceau-Imbrechies",
        "lat": 50.036452,
        "lon": 4.224118
    },
    {
        "code": "6600",
        "city": "Bastogne",
        "lat": 50.0009951,
        "lon": 5.7153203
    },
    {
        "code": "6637",
        "city": "Fauvillers",
        "lat": 49.8509306,
        "lon": 5.665031
    },
    {
        "code": "6640",
        "city": "Hompré",
        "lat": 49.9437838,
        "lon": 5.6866728
    },
    {
        "code": "6640",
        "city": "Sibret",
        "lat": 49.968275,
        "lon": 5.6352461
    },
    {
        "code": "6640",
        "city": "Vaux-Lez-Rosières",
        "lat": 49.9133632,
        "lon": 5.5705339
    },
    {
        "code": "6660",
        "city": "Nadrin",
        "lat": 50.1611829,
        "lon": 5.6807442
    },
    {
        "code": "6661",
        "city": "Mont",
        "lat": 50.5341607,
        "lon": 5.7909538
    },
    {
        "code": "6672",
        "city": "Beho",
        "lat": 50.220365,
        "lon": 5.9972692
    },
    {
        "code": "6674",
        "city": "Montleban",
        "lat": 50.1876021,
        "lon": 5.8288862
    },
    {
        "code": "6686",
        "city": "Flamierge",
        "lat": 50.0333519,
        "lon": 5.6038758
    },
    {
        "code": "6688",
        "city": "Longchamps",
        "lat": 50.0535428,
        "lon": 5.6892466
    },
    {
        "code": "6690",
        "city": "Vielsalm",
        "lat": 50.2883685,
        "lon": 5.9170187
    },
    {
        "code": "6720",
        "city": "Hachy",
        "lat": 49.7015507,
        "lon": 5.6805003
    },
    {
        "code": "6721",
        "city": "Anlier",
        "lat": 49.772082,
        "lon": 5.620414
    },
    {
        "code": "6723",
        "city": "Habay-La-Vieille",
        "lat": 49.7228424,
        "lon": 5.6225107
    },
    {
        "code": "6750",
        "city": "Mussy-La-Ville",
        "lat": 49.5714143,
        "lon": 5.6617004
    },
    {
        "code": "6760",
        "city": "Bleid",
        "lat": 49.5680419,
        "lon": 5.6272894
    },
    {
        "code": "6760",
        "city": "Virton",
        "lat": 49.5677263,
        "lon": 5.5329559
    },
    {
        "code": "6769",
        "city": "Sommethonne",
        "lat": 49.5764582,
        "lon": 5.4456876
    },
    {
        "code": "6769",
        "city": "Villers-La-Loue",
        "lat": 49.5749479,
        "lon": 5.481043
    },
    {
        "code": "6780",
        "city": "Hondelange",
        "lat": 49.6351714,
        "lon": 5.8350151
    },
    {
        "code": "6782",
        "city": "Habergy",
        "lat": 49.6153377,
        "lon": 5.7608307
    },
    {
        "code": "6800",
        "city": "Recogne",
        "lat": 49.9112853,
        "lon": 5.3607943
    },
    {
        "code": "6800",
        "city": "Sainte-Marie-Chevigny",
        "lat": 49.9235741,
        "lon": 5.4578106
    },
    {
        "code": "6811",
        "city": "Les Bulles",
        "lat": 49.7031011,
        "lon": 5.4263273
    },
    {
        "code": "6813",
        "city": "Termes",
        "lat": 49.7071328,
        "lon": 5.4579753
    },
    {
        "code": "6831",
        "city": "Noirfontaine",
        "lat": 50.6175774,
        "lon": 5.412251
    },
    {
        "code": "6836",
        "city": "Dohan",
        "lat": 49.7973741,
        "lon": 5.1418578
    },
    {
        "code": "6840",
        "city": "Grandvoir",
        "lat": 49.8576034,
        "lon": 5.3717959
    },
    {
        "code": "6840",
        "city": "Hamipré",
        "lat": 49.8359615,
        "lon": 5.4564462
    },
    {
        "code": "6840",
        "city": "Tournay",
        "lat": 49.8543387,
        "lon": 5.3969928
    },
    {
        "code": "6850",
        "city": "Paliseul",
        "lat": 49.9035269,
        "lon": 5.1349041
    },
    {
        "code": "6860",
        "city": "Ebly",
        "lat": 49.8508818,
        "lon": 5.534876707362
    },
    {
        "code": "6870",
        "city": "Arville",
        "lat": 50.0323986,
        "lon": 5.3166577
    },
    {
        "code": "6870",
        "city": "Awenne",
        "lat": 50.074242,
        "lon": 5.306188
    },
    {
        "code": "6870",
        "city": "Saint-Hubert",
        "lat": 50.0251428,
        "lon": 5.3738561
    },
    {
        "code": "6880",
        "city": "Cugnon",
        "lat": 49.8020427,
        "lon": 5.2033082
    },
    {
        "code": "6890",
        "city": "Redu",
        "lat": 50.0077873,
        "lon": 5.1601828
    },
    {
        "code": "6900",
        "city": "Hargimont",
        "lat": 50.1825868,
        "lon": 5.3094652
    },
    {
        "code": "6900",
        "city": "Marche-En-Famenne",
        "lat": 50.2240814,
        "lon": 5.3428796
    },
    {
        "code": "6924",
        "city": "Lomprez",
        "lat": 50.0762474,
        "lon": 5.092143
    },
    {
        "code": "6927",
        "city": "Tellin",
        "lat": 50.081019,
        "lon": 5.216837
    },
    {
        "code": "6929",
        "city": "Gembes",
        "lat": 49.997198,
        "lon": 5.063233
    },
    {
        "code": "6940",
        "city": "Septon",
        "lat": 50.3570338,
        "lon": 5.423028
    },
    {
        "code": "6941",
        "city": "Bomal-Sur-Ourthe",
        "lat": 50.3760087,
        "lon": 5.5223752
    },
    {
        "code": "6950",
        "city": "Nassogne",
        "lat": 50.1294031,
        "lon": 5.3455462
    },
    {
        "code": "6953",
        "city": "Masbourg",
        "lat": 50.1143521,
        "lon": 5.3136921
    },
    {
        "code": "6960",
        "city": "Odeigne",
        "lat": 50.2563686,
        "lon": 5.682551
    },
    {
        "code": "6960",
        "city": "Vaux-Chavanne",
        "lat": 50.3021516,
        "lon": 5.6968767
    },
    {
        "code": "7022",
        "city": "Harveng",
        "lat": 50.3949004,
        "lon": 3.986884
    },
    {
        "code": "7022",
        "city": "Hyon",
        "lat": 50.4392359,
        "lon": 3.9619447
    },
    {
        "code": "7031",
        "city": "Villers-Saint-Ghislain",
        "lat": 50.4312421,
        "lon": 4.0389071
    },
    {
        "code": "7033",
        "city": "Cuesmes",
        "lat": 50.436171,
        "lon": 3.9206652
    },
    {
        "code": "7034",
        "city": "Obourg",
        "lat": 50.4760289,
        "lon": 4.0062232
    },
    {
        "code": "7040",
        "city": "Blaregnies",
        "lat": 50.357777,
        "lon": 3.8980429
    },
    {
        "code": "7040",
        "city": "Quévy-Le-Petit",
        "lat": 50.367996,
        "lon": 3.93752
    },
    {
        "code": "7050",
        "city": "Herchies",
        "lat": 50.528238,
        "lon": 3.8577095
    },
    {
        "code": "7061",
        "city": "Casteau",
        "lat": 50.5130195,
        "lon": 4.0031319
    },
    {
        "code": "7070",
        "city": "Gottignies",
        "lat": 50.4971875,
        "lon": 4.0622054
    },
    {
        "code": "7080",
        "city": "La Bouverie",
        "lat": 50.407951,
        "lon": 3.8774491
    },
    {
        "code": "7090",
        "city": "Hennuyères",
        "lat": 50.6386981,
        "lon": 4.1715689
    },
    {
        "code": "7100",
        "city": "Haine-Saint-Paul",
        "lat": 50.454942,
        "lon": 4.1883094
    },
    {
        "code": "7110",
        "city": "Strépy-Bracquegnies",
        "lat": 50.474474,
        "lon": 4.1207031
    },
    {
        "code": "7120",
        "city": "Fauroeulx",
        "lat": 50.3703355,
        "lon": 4.1095709
    },
    {
        "code": "7120",
        "city": "Peissant",
        "lat": 50.3512136,
        "lon": 4.1208612
    },
    {
        "code": "7120",
        "city": "Vellereille-Les-Brayeux",
        "lat": 50.3790081,
        "lon": 4.1507915
    },
    {
        "code": "7130",
        "city": "Bray",
        "lat": 50.4299906,
        "lon": 4.1024947
    },
    {
        "code": "7134",
        "city": "Leval-Trahegnies",
        "lat": 50.416547,
        "lon": 4.218073
    },
    {
        "code": "7160",
        "city": "Godarville",
        "lat": 50.4955503,
        "lon": 4.2865899
    },
    {
        "code": "7170",
        "city": "Bois-D'haine",
        "lat": 50.5023427,
        "lon": 4.2156931
    },
    {
        "code": "7180",
        "city": "Seneffe",
        "lat": 50.52505545,
        "lon": 4.2664609240834
    },
    {
        "code": "7190",
        "city": "Ecaussinnes-D'enghien",
        "lat": 50.5714795,
        "lon": 4.1776303
    },
    {
        "code": "7191",
        "city": "Ecaussinnes-Lalaing",
        "lat": 50.5703563,
        "lon": 4.1785518
    },
    {
        "code": "7321",
        "city": "Harchies",
        "lat": 50.4794445,
        "lon": 3.6936
    },
    {
        "code": "7350",
        "city": "Hainin",
        "lat": 50.4311514,
        "lon": 3.7661218
    },
    {
        "code": "7387",
        "city": "Fayt-Le-Franc",
        "lat": 50.3566928,
        "lon": 3.7724828
    },
    {
        "code": "7387",
        "city": "Honnelles",
        "lat": 50.352089,
        "lon": 3.731019
    },
    {
        "code": "7502",
        "city": "Esplechin",
        "lat": 50.5743852,
        "lon": 3.3038112
    },
    {
        "code": "7503",
        "city": "Froyennes",
        "lat": 50.6195489,
        "lon": 3.3569842
    },
    {
        "code": "7506",
        "city": "Willemeau",
        "lat": 50.573981,
        "lon": 3.350025
    },
    {
        "code": "7522",
        "city": "Blandain",
        "lat": 50.6249665,
        "lon": 3.3035015
    },
    {
        "code": "7522",
        "city": "Lamain",
        "lat": 50.5982618,
        "lon": 3.2931148
    },
    {
        "code": "7531",
        "city": "Havinnes",
        "lat": 50.6156953,
        "lon": 3.4655917
    },
    {
        "code": "7532",
        "city": "Beclers",
        "lat": 50.6217774,
        "lon": 3.5028761
    },
    {
        "code": "7536",
        "city": "Vaulx",
        "lat": 50.589889,
        "lon": 3.426172
    },
    {
        "code": "7604",
        "city": "Callenelle",
        "lat": 50.5297342,
        "lon": 3.5253447
    },
    {
        "code": "7610",
        "city": "Rumes",
        "lat": 50.5557678,
        "lon": 3.3039251
    },
    {
        "code": "7618",
        "city": "Taintignies",
        "lat": 50.5502028,
        "lon": 3.3416855
    },
    {
        "code": "7620",
        "city": "Bléharies",
        "lat": 50.5131151,
        "lon": 3.4155171
    },
    {
        "code": "7620",
        "city": "Brunehaut",
        "lat": 50.5178063,
        "lon": 3.3795619
    },
    {
        "code": "7640",
        "city": "Péronnes-Lez-Antoing",
        "lat": 50.551862,
        "lon": 3.4538057
    },
    {
        "code": "7642",
        "city": "Calonne",
        "lat": 50.578325,
        "lon": 3.4371661
    },
    {
        "code": "7712",
        "city": "Herseaux",
        "lat": 50.7227127,
        "lon": 3.2342044
    },
    {
        "code": "7730",
        "city": "Leers-Nord",
        "lat": 50.6875576,
        "lon": 3.2703911
    },
    {
        "code": "7730",
        "city": "Saint-Léger",
        "lat": 50.7056533,
        "lon": 3.3149729
    },
    {
        "code": "7740",
        "city": "Pecq",
        "lat": 50.685616,
        "lon": 3.3407492
    },
    {
        "code": "7750",
        "city": "Amougies",
        "lat": 50.743719,
        "lon": 3.5066795
    },
    {
        "code": "7750",
        "city": "Russeignies",
        "lat": 50.7447633,
        "lon": 3.5309528
    },
    {
        "code": "7760",
        "city": "Molenbaix",
        "lat": 50.6930043,
        "lon": 3.4294567
    },
    {
        "code": "7800",
        "city": "Lanquesaint",
        "lat": 50.6534242,
        "lon": 3.8042549
    },
    {
        "code": "7812",
        "city": "Houtaing",
        "lat": 50.6397485,
        "lon": 3.67998
    },
    {
        "code": "7812",
        "city": "Moulbaix",
        "lat": 50.600191,
        "lon": 3.7156806
    },
    {
        "code": "7823",
        "city": "Gibecq",
        "lat": 50.637673,
        "lon": 3.8878195
    },
    {
        "code": "7830",
        "city": "Silly",
        "lat": 50.6489028,
        "lon": 3.9243973
    },
    {
        "code": "7860",
        "city": "Lessines",
        "lat": 50.7123036,
        "lon": 3.8301131
    },
    {
        "code": "7866",
        "city": "Bois-De-Lessines",
        "lat": 50.6953023,
        "lon": 3.8856306
    },
    {
        "code": "7866",
        "city": "Ollignies",
        "lat": 50.6874157,
        "lon": 3.8598773
    },
    {
        "code": "7890",
        "city": "Wodecq",
        "lat": 50.7178459,
        "lon": 3.7444299
    },
    {
        "code": "7910",
        "city": "Cordes",
        "lat": 50.688202,
        "lon": 3.5342514
    },
    {
        "code": "7911",
        "city": "Montroeul-Au-Bois",
        "lat": 50.642909,
        "lon": 3.571359
    },
    {
        "code": "7940",
        "city": "Brugelette",
        "lat": 50.5954253,
        "lon": 3.8546563
    },
    {
        "code": "7942",
        "city": "Mévergnies-Lez-Lens",
        "lat": 50.6044689,
        "lon": 3.8507081
    },
    {
        "code": "7950",
        "city": "Chièvres",
        "lat": 50.587693,
        "lon": 3.810128
    },
    {
        "code": "7950",
        "city": "Grosage",
        "lat": 50.5444446,
        "lon": 3.7571017
    },
    {
        "code": "7950",
        "city": "Tongre-Saint-Martin",
        "lat": 50.5860413,
        "lon": 3.7907921
    },
    {
        "code": "7972",
        "city": "Aubechies",
        "lat": 50.573932,
        "lon": 3.6769173
    },
    {
        "code": "8020",
        "city": "Ruddervoorde",
        "lat": 51.08464525,
        "lon": 3.2014781027698
    },
    {
        "code": "8300",
        "city": "Westkapelle",
        "lat": 51.3207807,
        "lon": 3.3172865697943
    },
    {
        "code": "8301",
        "city": "Ramskapelle",
        "lat": 51.3126954,
        "lon": 3.2505004
    },
    {
        "code": "8377",
        "city": "Zuienkerke",
        "lat": 51.2685834,
        "lon": 3.1567406094326
    },
    {
        "code": "8380",
        "city": "Dudzele",
        "lat": 51.2747463,
        "lon": 3.2292277
    },
    {
        "code": "8380",
        "city": "Lissewege",
        "lat": 51.31711375,
        "lon": 3.1991824156265
    },
    {
        "code": "8400",
        "city": "Oostende",
        "lat": 51.2303177,
        "lon": 2.9203275
    },
    {
        "code": "8400",
        "city": "Stene",
        "lat": 51.20214645,
        "lon": 2.9200835535007
    },
    {
        "code": "8420",
        "city": "De Haan",
        "lat": 51.2415107,
        "lon": 3.0049248
    },
    {
        "code": "8433",
        "city": "Slijpe",
        "lat": 51.1543955,
        "lon": 2.8476959
    },
    {
        "code": "8490",
        "city": "Stalhille",
        "lat": 51.21970915,
        "lon": 3.0730014206469
    },
    {
        "code": "8510",
        "city": "Kooigem",
        "lat": 50.739664,
        "lon": 3.3261001
    },
    {
        "code": "8530",
        "city": "Harelbeke",
        "lat": 50.8293249,
        "lon": 3.3425511
    },
    {
        "code": "8553",
        "city": "Otegem",
        "lat": 50.80927585,
        "lon": 3.4245499365566
    },
    {
        "code": "8560",
        "city": "Wevelgem",
        "lat": 50.8121065,
        "lon": 3.1864450062666
    },
    {
        "code": "8570",
        "city": "Gijzelbrechtegem",
        "lat": 50.8279177,
        "lon": 3.5060602
    },
    {
        "code": "8580",
        "city": "Avelgem",
        "lat": 50.7754997,
        "lon": 3.4468985313677
    },
    {
        "code": "8582",
        "city": "Outrijve",
        "lat": 50.75868715,
        "lon": 3.4257331809137
    },
    {
        "code": "8600",
        "city": "Beerst",
        "lat": 51.05367055,
        "lon": 2.873227743412
    },
    {
        "code": "8600",
        "city": "Leke",
        "lat": 51.10066415,
        "lon": 2.8993179258716
    },
    {
        "code": "8600",
        "city": "Oostkerke",
        "lat": 51.04353425,
        "lon": 2.7997074366181
    },
    {
        "code": "8600",
        "city": "Stuivekenskerke",
        "lat": 51.07690075,
        "lon": 2.823381776939
    },
    {
        "code": "8610",
        "city": "Kortemark",
        "lat": 51.0285109,
        "lon": 3.0441178
    },
    {
        "code": "8630",
        "city": "Avekapelle",
        "lat": 51.0631103,
        "lon": 2.7457710712354
    },
    {
        "code": "8640",
        "city": "Woesten",
        "lat": 50.9035513,
        "lon": 2.7887585311487
    },
    {
        "code": "8650",
        "city": "Klerken",
        "lat": 50.99044185,
        "lon": 2.9155135952546
    },
    {
        "code": "8660",
        "city": "De Panne",
        "lat": 51.09437775,
        "lon": 2.5806696887141
    },
    {
        "code": "8670",
        "city": "Koksijde",
        "lat": 51.1091101,
        "lon": 2.6353426015022
    },
    {
        "code": "8670",
        "city": "Wulpen",
        "lat": 51.09779175,
        "lon": 2.7073119164927
    },
    {
        "code": "8680",
        "city": "Bovekerke",
        "lat": 51.05621365,
        "lon": 2.9633414725432
    },
    {
        "code": "8691",
        "city": "Gijverinkhove",
        "lat": 50.9761749,
        "lon": 2.6727552
    },
    {
        "code": "8700",
        "city": "Schuiferskapelle",
        "lat": 51.03700665,
        "lon": 3.3283107336881
    },
    {
        "code": "8710",
        "city": "Sint-Baafs-Vijve",
        "lat": 50.9245338,
        "lon": 3.3862545030012
    },
    {
        "code": "8720",
        "city": "Oeselgem",
        "lat": 50.94008805,
        "lon": 3.429680547389
    },
    {
        "code": "8750",
        "city": "Wingene",
        "lat": 51.06808895,
        "lon": 3.2847683081115
    },
    {
        "code": "8760",
        "city": "Meulebeke",
        "lat": 50.9484788,
        "lon": 3.2859605761212
    },
    {
        "code": "8820",
        "city": "Torhout",
        "lat": 51.0585915,
        "lon": 3.0913072045454
    },
    {
        "code": "8840",
        "city": "Oostnieuwkerke",
        "lat": 50.94159445,
        "lon": 3.0641586047981
    },
    {
        "code": "8851",
        "city": "Koolskamp",
        "lat": 51.0075272,
        "lon": 3.2016142835313
    },
    {
        "code": "8880",
        "city": "Rollegem-Kapelle",
        "lat": 50.87005025,
        "lon": 3.1510232055719
    },
    {
        "code": "8890",
        "city": "Dadizele",
        "lat": 50.84693275,
        "lon": 3.1056665757612
    },
    {
        "code": "8890",
        "city": "Moorslede",
        "lat": 50.89006565,
        "lon": 3.0732075972642
    },
    {
        "code": "8900",
        "city": "Dikkebus",
        "lat": 50.8192065,
        "lon": 2.8309734
    },
    {
        "code": "8906",
        "city": "Elverdinge",
        "lat": 50.88120105,
        "lon": 2.8086072093094
    },
    {
        "code": "8940",
        "city": "Wervik",
        "lat": 50.79981455,
        "lon": 3.0429882329964
    },
    {
        "code": "8954",
        "city": "Westouter",
        "lat": 50.8003371,
        "lon": 2.7409610507934
    },
    {
        "code": "8957",
        "city": "Messines",
        "lat": 50.7596526,
        "lon": 2.9001214234264
    },
    {
        "code": "8970",
        "city": "Poperinge",
        "lat": 50.84362245,
        "lon": 2.7222592638771
    },
    {
        "code": "8980",
        "city": "Passendale",
        "lat": 50.89915125,
        "lon": 3.0054428297242
    },
    {
        "code": "8980",
        "city": "Zandvoorde",
        "lat": 50.8151226,
        "lon": 2.9770015427192
    },
    {
        "code": "9031",
        "city": "Drongen",
        "lat": 51.0528944,
        "lon": 3.6395168043236
    },
    {
        "code": "9042",
        "city": "Sint-Kruis-Winkel",
        "lat": 51.1541943,
        "lon": 3.8234371
    },
    {
        "code": "9070",
        "city": "Destelbergen",
        "lat": 51.0556204,
        "lon": 3.7978887
    },
    {
        "code": "9100",
        "city": "Nieuwkerken-Waas",
        "lat": 51.1933908,
        "lon": 4.1780279
    },
    {
        "code": "9120",
        "city": "Kallo",
        "lat": 51.2652143,
        "lon": 4.2588008641609
    },
    {
        "code": "9120",
        "city": "Melsele",
        "lat": 51.2211394,
        "lon": 4.2821446
    },
    {
        "code": "9130",
        "city": "Doel",
        "lat": 51.3181461,
        "lon": 4.2456374474582
    },
    {
        "code": "9130",
        "city": "Kallo",
        "lat": 51.2519515,
        "lon": 4.27803
    },
    {
        "code": "9140",
        "city": "Temse",
        "lat": 51.1421436,
        "lon": 4.2133505278525
    },
    {
        "code": "9150",
        "city": "Bazel",
        "lat": 51.14685855,
        "lon": 4.2873842506575
    },
    {
        "code": "9150",
        "city": "Rupelmonde",
        "lat": 51.1283692,
        "lon": 4.2906315
    },
    {
        "code": "9230",
        "city": "Massemen",
        "lat": 50.9809343,
        "lon": 3.8735741
    },
    {
        "code": "9240",
        "city": "Zele",
        "lat": 51.0683621,
        "lon": 4.0385864
    },
    {
        "code": "9255",
        "city": "Buggenhout",
        "lat": 51.0113077,
        "lon": 4.192804319009
    },
    {
        "code": "9260",
        "city": "Serskamp",
        "lat": 50.98997155,
        "lon": 3.9309567805899
    },
    {
        "code": "9290",
        "city": "Uitbergen",
        "lat": 51.0278435,
        "lon": 3.9639785004366
    },
    {
        "code": "9310",
        "city": "Meldert",
        "lat": 50.93483295,
        "lon": 4.1339380209476
    },
    {
        "code": "9400",
        "city": "Appelterre-Eichem",
        "lat": 50.819114,
        "lon": 3.9673266115113
    },
    {
        "code": "9404",
        "city": "Aspelare",
        "lat": 50.8421637,
        "lon": 3.9584406
    },
    {
        "code": "9500",
        "city": "Onkerzele",
        "lat": 50.77876845,
        "lon": 3.9040294677949
    },
    {
        "code": "9500",
        "city": "Ophasselt",
        "lat": 50.8218582,
        "lon": 3.897035
    },
    {
        "code": "9506",
        "city": "Schendelbeke",
        "lat": 50.7968671,
        "lon": 3.8989486
    },
    {
        "code": "9506",
        "city": "Waarbeke",
        "lat": 50.7779309,
        "lon": 3.968228
    },
    {
        "code": "9620",
        "city": "Oombergen",
        "lat": 50.8988376,
        "lon": 3.8381185
    },
    {
        "code": "9620",
        "city": "Sint-Maria-Oudenhove",
        "lat": 50.82512665,
        "lon": 3.7998568349562
    },
    {
        "code": "9630",
        "city": "Beerlegem",
        "lat": 50.90267645,
        "lon": 3.719796314005
    },
    {
        "code": "9630",
        "city": "Dikkele",
        "lat": 50.9034583,
        "lon": 3.7418503
    },
    {
        "code": "9630",
        "city": "Munkzwalm",
        "lat": 50.8776841,
        "lon": 3.7327378
    },
    {
        "code": "9636",
        "city": "Nederzwalm-Hermelgem",
        "lat": 50.8867594,
        "lon": 3.6879894099711
    },
    {
        "code": "9660",
        "city": "Brakel",
        "lat": 50.7979739,
        "lon": 3.762778
    },
    {
        "code": "9660",
        "city": "Everbeek",
        "lat": 50.7685909,
        "lon": 3.7859967948024
    },
    {
        "code": "9660",
        "city": "Michelbeke",
        "lat": 50.834125,
        "lon": 3.7638335
    },
    {
        "code": "9667",
        "city": "Sint-Maria-Horebeke",
        "lat": 50.8383442,
        "lon": 3.6875097
    },
    {
        "code": "9688",
        "city": "Schorisse",
        "lat": 50.8061799,
        "lon": 3.6782376
    },
    {
        "code": "9700",
        "city": "Nederename",
        "lat": 50.8678376,
        "lon": 3.6322868
    },
    {
        "code": "9700",
        "city": "Volkegem",
        "lat": 50.8408663,
        "lon": 3.6356493
    },
    {
        "code": "9700",
        "city": "Welden",
        "lat": 50.8791033,
        "lon": 3.6536587
    },
    {
        "code": "9750",
        "city": "Zingem",
        "lat": 50.9039326,
        "lon": 3.653793
    },
    {
        "code": "9770",
        "city": "Kruishoutem",
        "lat": 50.9200896,
        "lon": 3.5404462768494
    },
    {
        "code": "9771",
        "city": "Nokere",
        "lat": 50.8853618,
        "lon": 3.5108474
    },
    {
        "code": "9790",
        "city": "Moregem",
        "lat": 50.8503548,
        "lon": 3.5623575
    },
    {
        "code": "9790",
        "city": "Petegem-Aan-De-Schelde",
        "lat": 50.8330877,
        "lon": 3.5581136
    },
    {
        "code": "9800",
        "city": "Astene",
        "lat": 50.9845547,
        "lon": 3.5628186
    },
    {
        "code": "9800",
        "city": "Vinkt",
        "lat": 51.0078663,
        "lon": 3.4808321
    },
    {
        "code": "9810",
        "city": "Eke",
        "lat": 50.9569377,
        "lon": 3.6418029
    },
    {
        "code": "9820",
        "city": "Lemberge",
        "lat": 50.9779856,
        "lon": 3.7726469
    },
    {
        "code": "9860",
        "city": "Gijzenzele",
        "lat": 50.971061,
        "lon": 3.8164475
    },
    {
        "code": "9860",
        "city": "Oosterzele",
        "lat": 50.9456388,
        "lon": 3.8032713
    },
    {
        "code": "9860",
        "city": "Scheldewindeke",
        "lat": 50.9392571,
        "lon": 3.78971
    },
    {
        "code": "9870",
        "city": "Zulte",
        "lat": 50.9206638,
        "lon": 3.4485632
    },
    {
        "code": "9880",
        "city": "Lotenhulle",
        "lat": 51.0497022,
        "lon": 3.4596784
    },
    {
        "code": "9881",
        "city": "Bellem",
        "lat": 51.0902776,
        "lon": 3.4994525656039
    },
    {
        "code": "9910",
        "city": "Knesselare",
        "lat": 51.1392692,
        "lon": 3.412339
    },
    {
        "code": "9920",
        "city": "Lovendegem",
        "lat": 51.0956807,
        "lon": 3.6076129
    },
    {
        "code": "9921",
        "city": "Vinderhoute",
        "lat": 51.0876396,
        "lon": 3.6412401
    },
    {
        "code": "9940",
        "city": "Sleidinge",
        "lat": 51.131929,
        "lon": 3.6789045
    },
    {
        "code": "9960",
        "city": "Assenede",
        "lat": 51.23004155,
        "lon": 3.7568076657628
    },
    {
        "code": "9968",
        "city": "Oosteeklo",
        "lat": 51.1929943,
        "lon": 3.687828
    },
    {
        "code": "9980",
        "city": "Sint-Laureins",
        "lat": 51.2330483,
        "lon": 3.5374820679851
    },
    {
        "code": "9981",
        "city": "Sint-Margriete",
        "lat": 51.26767195,
        "lon": 3.5315005565828
    },
    {
        "code": "9988",
        "city": "Watervliet",
        "lat": 51.2776499,
        "lon": 3.626982177111
    },
    {
        "code": "1030",
        "city": "Schaerbeek",
        "lat": 50.8676041,
        "lon": 4.3737121
    },
    {
        "code": "1083",
        "city": "Ganshoren",
        "lat": 50.8712396,
        "lon": 4.3175103
    },
    {
        "code": "1160",
        "city": "Auderghem",
        "lat": 50.8156571,
        "lon": 4.4331389
    },
    {
        "code": "1170",
        "city": "Watermael-Boitsfort",
        "lat": 50.799394,
        "lon": 4.4158177
    },
    {
        "code": "1315",
        "city": "Incourt",
        "lat": 50.6918004,
        "lon": 4.798944
    },
    {
        "code": "1315",
        "city": "Roux-Miroir",
        "lat": 50.7085122,
        "lon": 4.7848246
    },
    {
        "code": "1332",
        "city": "Genval",
        "lat": 50.72074495,
        "lon": 4.4971389344121
    },
    {
        "code": "1357",
        "city": "Hélécine",
        "lat": 50.7514034,
        "lon": 4.9822395
    },
    {
        "code": "1367",
        "city": "Bomal",
        "lat": 50.6681389,
        "lon": 4.8735246
    },
    {
        "code": "1367",
        "city": "Mont-Saint-André",
        "lat": 50.6550272,
        "lon": 4.8635811
    },
    {
        "code": "1370",
        "city": "Dongelberg",
        "lat": 50.7016251,
        "lon": 4.8203333
    },
    {
        "code": "1370",
        "city": "Saint-Remy-Geest",
        "lat": 50.7471089,
        "lon": 4.8583707
    },
    {
        "code": "1370",
        "city": "Zétrud-Lumay",
        "lat": 50.7592057,
        "lon": 4.8838518
    },
    {
        "code": "1390",
        "city": "Biez",
        "lat": 50.7267076,
        "lon": 4.7033973
    },
    {
        "code": "1400",
        "city": "Nivelles",
        "lat": 50.58916295,
        "lon": 4.3319091758631
    },
    {
        "code": "1410",
        "city": "Waterloo",
        "lat": 50.7173563,
        "lon": 4.3978047
    },
    {
        "code": "1435",
        "city": "Hévillers",
        "lat": 50.6220893,
        "lon": 4.6167772
    },
    {
        "code": "1450",
        "city": "Chastre",
        "lat": 50.6080835,
        "lon": 4.636678
    },
    {
        "code": "1450",
        "city": "Gentinnes",
        "lat": 50.57939665,
        "lon": 4.5927221009772
    },
    {
        "code": "1457",
        "city": "Tourinnes-Saint-Lambert",
        "lat": 50.6395479,
        "lon": 4.7220185
    },
    {
        "code": "1457",
        "city": "Walhain",
        "lat": 50.6182838,
        "lon": 4.6952724
    },
    {
        "code": "1457",
        "city": "Walhain-Saint-Paul",
        "lat": 50.6167794,
        "lon": 4.6952241
    },
    {
        "code": "1470",
        "city": "Baisy-Thy",
        "lat": 50.6040225,
        "lon": 4.4880778189719
    },
    {
        "code": "1470",
        "city": "Bousval",
        "lat": 50.63205335,
        "lon": 4.5192034141632
    },
    {
        "code": "1472",
        "city": "Vieux-Genappe",
        "lat": 50.62902485,
        "lon": 4.4015030981612
    },
    {
        "code": "1476",
        "city": "Houtain-Le-Val",
        "lat": 50.5762935,
        "lon": 4.4110339517433
    },
    {
        "code": "1502",
        "city": "Lembeek",
        "lat": 50.7092954,
        "lon": 4.2143430588907
    },
    {
        "code": "1547",
        "city": "Biévène",
        "lat": 50.7164481,
        "lon": 3.943147
    },
    {
        "code": "1570",
        "city": "Vollezele",
        "lat": 50.76088,
        "lon": 4.0247359
    },
    {
        "code": "1601",
        "city": "Ruisbroek",
        "lat": 50.7848617,
        "lon": 4.298610469732
    },
    {
        "code": "1653",
        "city": "Dworp",
        "lat": 50.73423975,
        "lon": 4.2950152833964
    },
    {
        "code": "1670",
        "city": "Heikruis",
        "lat": 50.7348458,
        "lon": 4.1126567
    },
    {
        "code": "1742",
        "city": "Sint-Katherina-Lombeek",
        "lat": 50.8726659,
        "lon": 4.1535568
    },
    {
        "code": "1745",
        "city": "Mazenzele",
        "lat": 50.9428791,
        "lon": 4.1717632
    },
    {
        "code": "1750",
        "city": "Lennik",
        "lat": 50.8085632,
        "lon": 4.1648626
    },
    {
        "code": "1755",
        "city": "Gooik",
        "lat": 50.7979738,
        "lon": 4.1029840674511
    },
    {
        "code": "1755",
        "city": "Leerbeek",
        "lat": 50.7773538,
        "lon": 4.1192641
    },
    {
        "code": "1760",
        "city": "Pamel",
        "lat": 50.83471975,
        "lon": 4.0820664787057
    },
    {
        "code": "1760",
        "city": "Strijtem",
        "lat": 50.8405541,
        "lon": 4.1145703
    },
    {
        "code": "1770",
        "city": "Liedekerke",
        "lat": 50.8711313,
        "lon": 4.0860754
    },
    {
        "code": "1780",
        "city": "Wemmel",
        "lat": 50.9145955,
        "lon": 4.3108723
    },
    {
        "code": "1790",
        "city": "Teralfene",
        "lat": 50.8921419,
        "lon": 4.09834
    },
    {
        "code": "1820",
        "city": "Steenokkerzeel",
        "lat": 50.9093488,
        "lon": 4.5110471
    },
    {
        "code": "1840",
        "city": "Malderen",
        "lat": 51.0198436,
        "lon": 4.2437819
    },
    {
        "code": "1853",
        "city": "Strombeek-Bever",
        "lat": 50.91096285,
        "lon": 4.342355501959
    },
    {
        "code": "1880",
        "city": "Nieuwenrode",
        "lat": 50.9799835,
        "lon": 4.3512293
    },
    {
        "code": "1910",
        "city": "Nederokkerzeel",
        "lat": 50.9190127,
        "lon": 4.5645096
    },
    {
        "code": "2050",
        "city": "Antwerpen",
        "lat": 51.2211097,
        "lon": 4.3997081
    },
    {
        "code": "2070",
        "city": "Burcht",
        "lat": 51.2028046,
        "lon": 4.3416362
    },
    {
        "code": "2100",
        "city": "Deurne",
        "lat": 51.2115284,
        "lon": 4.4695254092764
    },
    {
        "code": "2180",
        "city": "Ekeren",
        "lat": 51.2842045,
        "lon": 4.4322870782182
    },
    {
        "code": "2200",
        "city": "Noorderwijk",
        "lat": 51.1415564,
        "lon": 4.8401277
    },
    {
        "code": "2223",
        "city": "Schriek",
        "lat": 51.2907379,
        "lon": 4.4361161
    },
    {
        "code": "2230",
        "city": "Herselt",
        "lat": 51.0554081,
        "lon": 4.9018080031354
    },
    {
        "code": "2240",
        "city": "Massenhoven",
        "lat": 51.19902125,
        "lon": 4.6356924683019
    },
    {
        "code": "2260",
        "city": "Oevel",
        "lat": 51.1377568,
        "lon": 4.9053101
    },
    {
        "code": "2260",
        "city": "Tongerlo",
        "lat": 51.1220734,
        "lon": 4.9012622781849
    },
    {
        "code": "2260",
        "city": "Westerlo",
        "lat": 51.086694,
        "lon": 4.9168675
    },
    {
        "code": "2275",
        "city": "Poederlee",
        "lat": 51.2267185,
        "lon": 4.8359528
    },
    {
        "code": "2320",
        "city": "Hoogstraten",
        "lat": 51.39574085,
        "lon": 4.7440656414186
    },
    {
        "code": "2330",
        "city": "Merksplas",
        "lat": 51.3580597,
        "lon": 4.8627541
    },
    {
        "code": "2382",
        "city": "Poppel",
        "lat": 51.45063155,
        "lon": 5.0488069670452
    },
    {
        "code": "2400",
        "city": "Mol",
        "lat": 51.1840421,
        "lon": 5.1155267
    },
    {
        "code": "2431",
        "city": "Varendonk",
        "lat": 51.0801317,
        "lon": 4.9552253
    },
    {
        "code": "2440",
        "city": "Geel",
        "lat": 51.1610826,
        "lon": 4.9903187
    },
    {
        "code": "2460",
        "city": "Kasterlee",
        "lat": 51.2407915,
        "lon": 4.967812
    },
    {
        "code": "2470",
        "city": "Retie",
        "lat": 51.2675862,
        "lon": 5.0843883
    },
    {
        "code": "2540",
        "city": "Hove",
        "lat": 51.1486117,
        "lon": 4.477387
    },
    {
        "code": "2547",
        "city": "Lint",
        "lat": 51.1268305,
        "lon": 4.4922187
    },
    {
        "code": "2550",
        "city": "Waarloos",
        "lat": 51.1052659,
        "lon": 4.453
    },
    {
        "code": "2560",
        "city": "Kessel",
        "lat": 51.14453105,
        "lon": 4.6393456001407
    },
    {
        "code": "2560",
        "city": "Nijlen",
        "lat": 51.1611887,
        "lon": 4.6709517317049
    },
    {
        "code": "2570",
        "city": "Duffel",
        "lat": 51.0957176,
        "lon": 4.5061988
    },
    {
        "code": "2580",
        "city": "Beerzel",
        "lat": 51.06299735,
        "lon": 4.6630807412987
    },
    {
        "code": "2610",
        "city": "Wilrijk",
        "lat": 51.1638451,
        "lon": 4.3876309610455
    },
    {
        "code": "2627",
        "city": "Schelle",
        "lat": 51.1245635,
        "lon": 4.3361875
    },
    {
        "code": "2660",
        "city": "Hoboken",
        "lat": 51.1757824,
        "lon": 4.3511502171395
    },
    {
        "code": "2880",
        "city": "Mariekerke",
        "lat": 51.06647005,
        "lon": 4.2010309553894
    },
    {
        "code": "2880",
        "city": "Weert",
        "lat": 51.10151195,
        "lon": 4.1855882750296
    },
    {
        "code": "2890",
        "city": "Lippelo",
        "lat": 51.0451478,
        "lon": 4.2519213925908
    },
    {
        "code": "2890",
        "city": "Sint-Amands",
        "lat": 51.0463409,
        "lon": 4.2107348196593
    },
    {
        "code": "2960",
        "city": "Sint-Job-In-'t-Goor",
        "lat": 51.2955923,
        "lon": 4.5759347
    },
    {
        "code": "2970",
        "city": "Schilde",
        "lat": 51.257095,
        "lon": 4.5955157359888
    },
    {
        "code": "2980",
        "city": "Halle",
        "lat": 51.2428446,
        "lon": 4.6455565344486
    },
    {
        "code": "2990",
        "city": "Loenhout",
        "lat": 51.3994474,
        "lon": 4.6428328
    },
    {
        "code": "3000",
        "city": "Leuven",
        "lat": 50.8812533,
        "lon": 4.6929903215189
    },
    {
        "code": "3040",
        "city": "Huldenberg",
        "lat": 50.7950895,
        "lon": 4.5828587400028
    },
    {
        "code": "3040",
        "city": "Sint-Agatha-Rode",
        "lat": 50.7794761,
        "lon": 4.6329556561262
    },
    {
        "code": "3071",
        "city": "Erps-Kwerps",
        "lat": 50.9104969,
        "lon": 4.5750864125531
    },
    {
        "code": "3080",
        "city": "Vossem",
        "lat": 50.83488335,
        "lon": 4.5565660886042
    },
    {
        "code": "3090",
        "city": "Overijse",
        "lat": 50.7729254,
        "lon": 4.5385226
    },
    {
        "code": "3212",
        "city": "Pellenberg",
        "lat": 50.87211325,
        "lon": 4.7894086649098
    },
    {
        "code": "3220",
        "city": "Sint-Pieters-Rode",
        "lat": 50.9208131,
        "lon": 4.8291872982184
    },
    {
        "code": "3300",
        "city": "Bost",
        "lat": 50.7846322,
        "lon": 4.9339239586832
    },
    {
        "code": "3350",
        "city": "Melkwezer",
        "lat": 50.8249402,
        "lon": 5.0585292480567
    },
    {
        "code": "3360",
        "city": "Bierbeek",
        "lat": 50.8241245,
        "lon": 4.7714318076029
    },
    {
        "code": "3360",
        "city": "Korbeek-Lo",
        "lat": 50.86176115,
        "lon": 4.7561775068454
    },
    {
        "code": "3360",
        "city": "Lovenjoel",
        "lat": 50.85475565,
        "lon": 4.7866873360324
    },
    {
        "code": "3370",
        "city": "Vertrijk",
        "lat": 50.83400235,
        "lon": 4.8270179962162
    },
    {
        "code": "3380",
        "city": "Bunsbeek",
        "lat": 50.8510351,
        "lon": 4.9601107928553
    },
    {
        "code": "3380",
        "city": "Glabbeek",
        "lat": 50.8725203,
        "lon": 4.9513009
    },
    {
        "code": "3390",
        "city": "Tielt-Winge",
        "lat": 50.9242724,
        "lon": 4.8863781815823
    },
    {
        "code": "3391",
        "city": "Meensel-Kiezegem",
        "lat": 50.8950541,
        "lon": 4.9173431325348
    },
    {
        "code": "3400",
        "city": "Wange",
        "lat": 50.7838394,
        "lon": 5.0302723897201
    },
    {
        "code": "3440",
        "city": "Dormaal",
        "lat": 50.8063449,
        "lon": 5.0920421498928
    },
    {
        "code": "3454",
        "city": "Rummen",
        "lat": 50.88594765,
        "lon": 5.1564917481959
    },
    {
        "code": "3472",
        "city": "Kersbeek-Miskom",
        "lat": 50.8930932577,
        "lon": 5.0065116045983
    },
    {
        "code": "3500",
        "city": "Sint-Lambrechts-Herk",
        "lat": 50.90358435,
        "lon": 5.3119462785891
    },
    {
        "code": "3540",
        "city": "Donk",
        "lat": 50.9582088,
        "lon": 4.9053567
    },
    {
        "code": "3545",
        "city": "Halen",
        "lat": 50.9384339,
        "lon": 5.1073913444455
    },
    {
        "code": "3560",
        "city": "Linkhout",
        "lat": 50.9657859,
        "lon": 5.1372552
    },
    {
        "code": "3560",
        "city": "Meldert",
        "lat": 51.0067479,
        "lon": 5.1472099707378
    },
    {
        "code": "3570",
        "city": "Alken",
        "lat": 50.8754731,
        "lon": 5.3079873
    },
    {
        "code": "3600",
        "city": "Genk",
        "lat": 50.9654864,
        "lon": 5.5001456
    },
    {
        "code": "3620",
        "city": "Veldwezelt",
        "lat": 50.8655982,
        "lon": 5.6323869
    },
    {
        "code": "3630",
        "city": "Eisden",
        "lat": 50.9863045,
        "lon": 5.7128515
    },
    {
        "code": "3630",
        "city": "Leut",
        "lat": 50.9921686,
        "lon": 5.7355142
    },
    {
        "code": "3630",
        "city": "Mechelen-Aan-De-Maas",
        "lat": 50.9764002,
        "lon": 5.6456979557208
    },
    {
        "code": "3630",
        "city": "Meeswijk",
        "lat": 51.001413,
        "lon": 5.7468352
    },
    {
        "code": "3640",
        "city": "Kinrooi",
        "lat": 51.14313325,
        "lon": 5.7414564606985
    },
    {
        "code": "3650",
        "city": "Lanklaar",
        "lat": 51.01085805,
        "lon": 5.6747570297643
    },
    {
        "code": "3670",
        "city": "Neerglabbeek",
        "lat": 51.09677995,
        "lon": 5.6181697688959
    },
    {
        "code": "3680",
        "city": "Neeroeteren",
        "lat": 51.0946499,
        "lon": 5.7027136767689
    },
    {
        "code": "3700",
        "city": "Rutten",
        "lat": 50.747053,
        "lon": 5.4421316
    },
    {
        "code": "3717",
        "city": "Herstappe",
        "lat": 50.7273829,
        "lon": 5.4260923
    },
    {
        "code": "3722",
        "city": "Wintershoven",
        "lat": 50.85566395,
        "lon": 5.4073456316551
    },
    {
        "code": "3730",
        "city": "Hoeselt",
        "lat": 50.8500788,
        "lon": 5.4865309
    },
    {
        "code": "3740",
        "city": "Eigenbilzen",
        "lat": 50.8743904,
        "lon": 5.5755614
    },
    {
        "code": "3746",
        "city": "Hoelbeek",
        "lat": 50.883259,
        "lon": 5.556142701219
    },
    {
        "code": "3770",
        "city": "Riemst",
        "lat": 50.8115825,
        "lon": 5.5978716
    },
    {
        "code": "3800",
        "city": "Aalst",
        "lat": 50.7813901,
        "lon": 5.2127604
    },
    {
        "code": "3800",
        "city": "Groot-Gelmen",
        "lat": 50.78320635,
        "lon": 5.2621170756458
    },
    {
        "code": "3803",
        "city": "Wilderen",
        "lat": 50.81773655,
        "lon": 5.1423025876022
    },
    {
        "code": "3830",
        "city": "Berlingen",
        "lat": 50.82338225,
        "lon": 5.3111748927674
    },
    {
        "code": "3840",
        "city": "Voort",
        "lat": 51.1674467,
        "lon": 4.6797906
    },
    {
        "code": "3850",
        "city": "Kozen",
        "lat": 50.8752909,
        "lon": 5.2414389
    },
    {
        "code": "3870",
        "city": "Batsheers",
        "lat": 50.7381794,
        "lon": 5.2807989
    },
    {
        "code": "3870",
        "city": "Klein-Gelmen",
        "lat": 50.7713536,
        "lon": 5.2763925
    },
    {
        "code": "3870",
        "city": "Mechelen-Bovelingen",
        "lat": 50.7427937,
        "lon": 5.2629291
    },
    {
        "code": "3870",
        "city": "Mettekoven",
        "lat": 50.7803053,
        "lon": 5.2896635
    },
    {
        "code": "3890",
        "city": "Vorsen",
        "lat": 50.705232,
        "lon": 5.1713288748516
    },
    {
        "code": "3891",
        "city": "Buvingen",
        "lat": 50.75022405,
        "lon": 5.1788950800586
    },
    {
        "code": "3941",
        "city": "Eksel",
        "lat": 51.1567865,
        "lon": 5.3440439268887
    },
    {
        "code": "3945",
        "city": "Ham",
        "lat": 51.11417145,
        "lon": 5.1781109743218
    },
    {
        "code": "3960",
        "city": "Opitter",
        "lat": 51.1184171,
        "lon": 5.6477954812084
    },
    {
        "code": "3971",
        "city": "Heppen",
        "lat": 51.11582725,
        "lon": 5.2265355962879
    },
    {
        "code": "4020",
        "city": "Bressoux",
        "lat": 50.6412964,
        "lon": 5.6111443
    },
    {
        "code": "4020",
        "city": "Liège",
        "lat": 50.6451381,
        "lon": 5.5734203
    },
    {
        "code": "4030",
        "city": "Grivegnee",
        "lat": 50.621845,
        "lon": 5.599573
    },
    {
        "code": "4032",
        "city": "Chênee",
        "lat": 50.6111024,
        "lon": 5.619261
    },
    {
        "code": "4100",
        "city": "Boncelles",
        "lat": 50.5742979,
        "lon": 5.5355698
    },
    {
        "code": "4102",
        "city": "Ougrée",
        "lat": 50.5992632,
        "lon": 5.5389943
    },
    {
        "code": "4120",
        "city": "Neupré",
        "lat": 50.5431751,
        "lon": 5.4901079
    },
    {
        "code": "4141",
        "city": "Louveigné",
        "lat": 50.5248417,
        "lon": 5.7172477995985
    },
    {
        "code": "4162",
        "city": "Hody",
        "lat": 50.4869156,
        "lon": 5.5009881
    },
    {
        "code": "4170",
        "city": "Comblain-Au-Pont",
        "lat": 50.474910743586,
        "lon": 5.5764707268884
    },
    {
        "code": "4171",
        "city": "Poulseur",
        "lat": 50.5097627,
        "lon": 5.5827847
    },
    {
        "code": "4180",
        "city": "Comblain-Fairon",
        "lat": 50.4454473,
        "lon": 5.5428656
    },
    {
        "code": "4181",
        "city": "Filot",
        "lat": 50.426751,
        "lon": 5.5680501
    },
    {
        "code": "4190",
        "city": "My",
        "lat": 50.40526,
        "lon": 5.5726031
    },
    {
        "code": "4190",
        "city": "Vieuxville",
        "lat": 50.3955089,
        "lon": 5.5512446
    },
    {
        "code": "4219",
        "city": "Acosse",
        "lat": 50.5945676,
        "lon": 5.0485902
    },
    {
        "code": "4250",
        "city": "Geer",
        "lat": 50.6684881,
        "lon": 5.1710529
    },
    {
        "code": "4250",
        "city": "Hollogne-Sur-Geer",
        "lat": 50.6770806,
        "lon": 5.2045681
    },
    {
        "code": "4257",
        "city": "Berloz",
        "lat": 50.6977331,
        "lon": 5.2146261
    },
    {
        "code": "4257",
        "city": "Corswarem",
        "lat": 50.7095698,
        "lon": 5.2131541
    },
    {
        "code": "4280",
        "city": "Abolens",
        "lat": 50.6720609,
        "lon": 5.1498313
    },
    {
        "code": "4280",
        "city": "Trognée",
        "lat": 50.6878033,
        "lon": 5.1242082
    },
    {
        "code": "4287",
        "city": "Lincent",
        "lat": 50.711613,
        "lon": 5.0318166
    },
    {
        "code": "4300",
        "city": "Bettincourt",
        "lat": 50.7099793,
        "lon": 5.235361
    },
    {
        "code": "4317",
        "city": "Celles",
        "lat": 50.6538847,
        "lon": 5.2455346
    },
    {
        "code": "4317",
        "city": "Faimes",
        "lat": 50.665246,
        "lon": 5.262322
    },
    {
        "code": "4347",
        "city": "Fexhe-Le-Haut-Clocher",
        "lat": 50.6660818,
        "lon": 5.3985197
    },
    {
        "code": "4347",
        "city": "Noville",
        "lat": 50.6598522,
        "lon": 5.3827164
    },
    {
        "code": "4357",
        "city": "Donceel",
        "lat": 50.6478971,
        "lon": 5.3199408
    },
    {
        "code": "4357",
        "city": "Haneffe",
        "lat": 50.6387144,
        "lon": 5.3192131
    },
    {
        "code": "4360",
        "city": "Bergilers",
        "lat": 50.7145424,
        "lon": 5.3277139
    },
    {
        "code": "4360",
        "city": "Lens-Sur-Geer",
        "lat": 50.7214501,
        "lon": 5.3537922
    },
    {
        "code": "4367",
        "city": "Fize-Le-Marsal",
        "lat": 50.701353,
        "lon": 5.386298
    },
    {
        "code": "4367",
        "city": "Kemexhe",
        "lat": 50.6961807,
        "lon": 5.4060353
    },
    {
        "code": "4367",
        "city": "Thys",
        "lat": 50.7225262,
        "lon": 5.3894005
    },
    {
        "code": "4400",
        "city": "Awirs",
        "lat": 50.5985223,
        "lon": 5.409295
    },
    {
        "code": "4400",
        "city": "Chokier",
        "lat": 50.5936483,
        "lon": 5.4528969
    },
    {
        "code": "4420",
        "city": "Montegnée",
        "lat": 50.64257,
        "lon": 5.5190161
    },
    {
        "code": "4460",
        "city": "Grâce-Berleur",
        "lat": 50.6323331,
        "lon": 5.501194
    },
    {
        "code": "4460",
        "city": "Grâce-Hollogne",
        "lat": 50.644955,
        "lon": 5.503152
    },
    {
        "code": "4460",
        "city": "Hollogne-Aux-Pierres",
        "lat": 50.6385937,
        "lon": 5.4757847
    },
    {
        "code": "4460",
        "city": "Horion-Hozémont",
        "lat": 50.6149668,
        "lon": 5.3886713
    },
    {
        "code": "4520",
        "city": "Antheit",
        "lat": 50.5512026,
        "lon": 5.2358517
    },
    {
        "code": "4520",
        "city": "Moha",
        "lat": 50.5471619,
        "lon": 5.1878867
    },
    {
        "code": "4520",
        "city": "Vinalmont",
        "lat": 50.5627464,
        "lon": 5.2261382
    },
    {
        "code": "4537",
        "city": "Verlaine",
        "lat": 50.6075114,
        "lon": 5.3184439
    },
    {
        "code": "4540",
        "city": "Amay",
        "lat": 50.5497761,
        "lon": 5.3240992
    },
    {
        "code": "4557",
        "city": "Abée",
        "lat": 50.4735257,
        "lon": 5.3564571
    },
    {
        "code": "4557",
        "city": "Fraiture",
        "lat": 50.478693,
        "lon": 5.4196671
    },
    {
        "code": "4557",
        "city": "Ramelot",
        "lat": 50.4644497,
        "lon": 5.3286278
    },
    {
        "code": "4557",
        "city": "Soheit-Tinlot",
        "lat": 50.4794492,
        "lon": 5.3766541
    },
    {
        "code": "4560",
        "city": "Ocquier",
        "lat": 50.3965212,
        "lon": 5.3954539
    },
    {
        "code": "4560",
        "city": "Pailhe",
        "lat": 50.4229708,
        "lon": 5.2579288
    },
    {
        "code": "4560",
        "city": "Terwagne",
        "lat": 50.4438855,
        "lon": 5.3491827
    },
    {
        "code": "4600",
        "city": "Lanaye",
        "lat": 50.7806558,
        "lon": 5.6944381
    },
    {
        "code": "4600",
        "city": "Visé",
        "lat": 50.7336644,
        "lon": 5.695536
    },
    {
        "code": "4601",
        "city": "Argenteau",
        "lat": 50.6957645,
        "lon": 5.686015
    },
    {
        "code": "4607",
        "city": "Bombaye",
        "lat": 50.730153,
        "lon": 5.7429371
    },
    {
        "code": "4608",
        "city": "Neufchâteau",
        "lat": 50.7195828,
        "lon": 5.7764464
    },
    {
        "code": "4610",
        "city": "Queue-Du-Bois",
        "lat": 50.6371513,
        "lon": 5.6785831
    },
    {
        "code": "4621",
        "city": "Retinne",
        "lat": 50.6302993,
        "lon": 5.6978166
    },
    {
        "code": "4630",
        "city": "Micheroux",
        "lat": 50.6315865,
        "lon": 5.7355403
    },
    {
        "code": "4651",
        "city": "Battice",
        "lat": 50.6482697,
        "lon": 5.8194813
    },
    {
        "code": "4652",
        "city": "Xhendelesse",
        "lat": 50.6037018,
        "lon": 5.7726472
    },
    {
        "code": "4654",
        "city": "Charneux",
        "lat": 50.669117,
        "lon": 5.8048204
    },
    {
        "code": "4671",
        "city": "Housse",
        "lat": 50.6796259,
        "lon": 5.693985
    },
    {
        "code": "4672",
        "city": "Saint-Remy",
        "lat": 50.6958409,
        "lon": 5.700802
    },
    {
        "code": "4680",
        "city": "Hermée",
        "lat": 50.7087526,
        "lon": 5.6186068
    },
    {
        "code": "4683",
        "city": "Vivegnis",
        "lat": 50.697932,
        "lon": 5.6527071
    },
    {
        "code": "4690",
        "city": "Boirs",
        "lat": 50.7539251,
        "lon": 5.5788622
    },
    {
        "code": "4730",
        "city": "Hauset",
        "lat": 50.7080172,
        "lon": 6.0708402
    },
    {
        "code": "4770",
        "city": "Amblève",
        "lat": 50.3543055,
        "lon": 6.1705559
    },
    {
        "code": "4800",
        "city": "Petit-Rechain",
        "lat": 50.6143044,
        "lon": 5.8341784
    },
    {
        "code": "4800",
        "city": "Verviers",
        "lat": 50.5932274,
        "lon": 5.8638544
    },
    {
        "code": "4834",
        "city": "Goé",
        "lat": 50.6086202,
        "lon": 5.9562188
    },
    {
        "code": "4850",
        "city": "Moresnet",
        "lat": 50.7208739,
        "lon": 5.9880362
    },
    {
        "code": "4851",
        "city": "Gemmenich",
        "lat": 50.7463908,
        "lon": 5.9967631
    },
    {
        "code": "4861",
        "city": "Soiron",
        "lat": 50.5921673,
        "lon": 5.7906072
    },
    {
        "code": "4870",
        "city": "Nessonvaux",
        "lat": 50.573671,
        "lon": 5.7371309
    },
    {
        "code": "4890",
        "city": "Clermont",
        "lat": 50.6589677,
        "lon": 5.883668
    },
    {
        "code": "4890",
        "city": "Thimister",
        "lat": 50.6529465,
        "lon": 5.8650125
    },
    {
        "code": "4890",
        "city": "Thimister-Clermont",
        "lat": 50.66298735,
        "lon": 5.8634486463407
    },
    {
        "code": "4910",
        "city": "La Reid",
        "lat": 50.4894593,
        "lon": 5.7905664
    },
    {
        "code": "4920",
        "city": "Ernonheid",
        "lat": 50.4028521,
        "lon": 5.6660069
    },
    {
        "code": "4920",
        "city": "Louveigné",
        "lat": 50.5248417,
        "lon": 5.7172477995985
    },
    {
        "code": "4960",
        "city": "Bevercé",
        "lat": 50.4415348,
        "lon": 6.0391879
    },
    {
        "code": "4970",
        "city": "Stavelot",
        "lat": 50.3940846,
        "lon": 5.9308362
    },
    {
        "code": "4987",
        "city": "Chevron",
        "lat": 50.3819564,
        "lon": 5.7299282
    },
    {
        "code": "4990",
        "city": "Bra",
        "lat": 50.3208964,
        "lon": 5.7309407
    },
    {
        "code": "4990",
        "city": "Lierneux",
        "lat": 50.28574,
        "lon": 5.7920929
    },
    {
        "code": "5020",
        "city": "Flawinne",
        "lat": 50.456602,
        "lon": 4.8120768
    },
    {
        "code": "5020",
        "city": "Malonne",
        "lat": 50.4382517,
        "lon": 4.7966661
    },
    {
        "code": "5020",
        "city": "Suarlée",
        "lat": 50.4883008,
        "lon": 4.7780268559488
    },
    {
        "code": "5022",
        "city": "Cognelée",
        "lat": 50.5171876,
        "lon": 4.9127293838106
    },
    {
        "code": "5024",
        "city": "Gelbressée",
        "lat": 50.5113799,
        "lon": 4.9578287274527
    },
    {
        "code": "5070",
        "city": "Fosses-La-Ville",
        "lat": 50.3959512,
        "lon": 4.6978935
    },
    {
        "code": "5070",
        "city": "Le Roux",
        "lat": 50.3885408,
        "lon": 4.6237797
    },
    {
        "code": "5080",
        "city": "La Bruyère",
        "lat": 50.4133942,
        "lon": 5.7266989
    },
    {
        "code": "5080",
        "city": "Rhisnes",
        "lat": 50.5005948,
        "lon": 4.7909700280289
    },
    {
        "code": "5081",
        "city": "Bovesse",
        "lat": 50.51440005,
        "lon": 4.7787022193209
    },
    {
        "code": "5170",
        "city": "Lesve",
        "lat": 50.3773499,
        "lon": 4.7748094
    },
    {
        "code": "5300",
        "city": "Maizeret",
        "lat": 50.4598458,
        "lon": 4.978173
    },
    {
        "code": "5310",
        "city": "Boneffe",
        "lat": 50.623868,
        "lon": 4.957465
    },
    {
        "code": "5310",
        "city": "Hanret",
        "lat": 50.5834955,
        "lon": 4.9440702
    },
    {
        "code": "5310",
        "city": "Leuze",
        "lat": 50.5605615,
        "lon": 4.9103111
    },
    {
        "code": "5310",
        "city": "Liernu",
        "lat": 50.5821124,
        "lon": 4.8311032
    },
    {
        "code": "5310",
        "city": "Taviers",
        "lat": 50.6170592,
        "lon": 4.9318579
    },
    {
        "code": "5333",
        "city": "Sorinne-La-Longue",
        "lat": 50.3896858,
        "lon": 5.0294375
    },
    {
        "code": "5340",
        "city": "Gesves",
        "lat": 50.4028535,
        "lon": 5.0776175
    },
    {
        "code": "5340",
        "city": "Sorée",
        "lat": 50.4001817,
        "lon": 5.1258806
    },
    {
        "code": "5351",
        "city": "Haillot",
        "lat": 50.4405961,
        "lon": 5.1491871
    },
    {
        "code": "5360",
        "city": "Hamois",
        "lat": 50.3408694,
        "lon": 5.1594475
    },
    {
        "code": "5377",
        "city": "Bonsin",
        "lat": 50.3727364,
        "lon": 5.3788758
    },
    {
        "code": "5377",
        "city": "Hogne",
        "lat": 50.24859,
        "lon": 5.279464
    },
    {
        "code": "5377",
        "city": "Nettinne",
        "lat": 50.2910362,
        "lon": 5.2612996
    },
    {
        "code": "5380",
        "city": "Bierwart",
        "lat": 50.5580545,
        "lon": 5.0360917
    },
    {
        "code": "5380",
        "city": "Noville-Les-Bois",
        "lat": 50.5555805,
        "lon": 4.982708
    },
    {
        "code": "5500",
        "city": "Furfooz",
        "lat": 50.223335,
        "lon": 4.9584822
    },
    {
        "code": "5501",
        "city": "Lisogne",
        "lat": 50.2814293,
        "lon": 4.9715412
    },
    {
        "code": "5530",
        "city": "Dorinne",
        "lat": 50.3173377,
        "lon": 4.97325
    },
    {
        "code": "5537",
        "city": "Anhée",
        "lat": 50.310778,
        "lon": 4.8796936
    },
    {
        "code": "5543",
        "city": "Heer",
        "lat": 50.161698,
        "lon": 4.831747
    },
    {
        "code": "5550",
        "city": "Mouzaive",
        "lat": 49.8534637,
        "lon": 4.9620137
    },
    {
        "code": "5555",
        "city": "Bièvre",
        "lat": 49.9411216,
        "lon": 5.0168496
    },
    {
        "code": "5555",
        "city": "Monceau-En-Ardenne",
        "lat": 49.9046481,
        "lon": 4.9859857
    },
    {
        "code": "5570",
        "city": "Beauraing",
        "lat": 50.1105211,
        "lon": 4.9576144
    },
    {
        "code": "5570",
        "city": "Feschaux",
        "lat": 50.15093,
        "lon": 4.910576
    },
    {
        "code": "5575",
        "city": "Vencimont",
        "lat": 50.0323702,
        "lon": 4.9198406
    },
    {
        "code": "5580",
        "city": "Buissonville",
        "lat": 50.2172183,
        "lon": 5.1958839
    },
    {
        "code": "5580",
        "city": "Eprave",
        "lat": 50.1502721,
        "lon": 5.1713525249725
    },
    {
        "code": "5580",
        "city": "Han-Sur-Lesse",
        "lat": 50.1254505,
        "lon": 5.1877385
    },
    {
        "code": "5580",
        "city": "Rochefort",
        "lat": 50.1725817,
        "lon": 5.2140311511356
    },
    {
        "code": "5590",
        "city": "Conneux",
        "lat": 50.2496153,
        "lon": 5.0603857
    },
    {
        "code": "5600",
        "city": "Jamagne",
        "lat": 50.2180956,
        "lon": 4.531286
    },
    {
        "code": "5600",
        "city": "Omezée",
        "lat": 50.1933288,
        "lon": 4.6995791
    },
    {
        "code": "5600",
        "city": "Romedenne",
        "lat": 50.1724056,
        "lon": 4.6979645
    },
    {
        "code": "5600",
        "city": "Sart-En-Fagne",
        "lat": 50.1579167,
        "lon": 4.6199447
    },
    {
        "code": "5630",
        "city": "Villers-Deux-Eglises",
        "lat": 50.189702,
        "lon": 4.4827391
    },
    {
        "code": "5640",
        "city": "Biesme",
        "lat": 50.3346461,
        "lon": 4.6073303
    },
    {
        "code": "5640",
        "city": "Graux",
        "lat": 50.325597,
        "lon": 4.7203188
    },
    {
        "code": "5650",
        "city": "Fraire",
        "lat": 50.2613846,
        "lon": 4.5081639
    },
    {
        "code": "5650",
        "city": "Pry",
        "lat": 50.273814,
        "lon": 4.4326804
    },
    {
        "code": "5660",
        "city": "Brûly",
        "lat": 49.9695906,
        "lon": 4.5296813
    },
    {
        "code": "5660",
        "city": "Couvin",
        "lat": 50.0524906,
        "lon": 4.4955009
    },